[{"info": {"county": "Clarion", "url": "https://mapsengine.google.com/06136759344167181854-11153668168998282611-4/wms/?version=1.3.0", "state": "PA", "SiteID": "57f4d505-7a40-5ede-820b-0034ad814fb0", "bbox": "-79.4938886154,41.2813999955,-79.4819113846,41.2904000045", "year": 2013, "latitude": 41.2859, "options": {"layers": "06136759344167181854-17634790329248222990-4", "version": "1.3.0"}, "longitude": -79.4879, "class": "public"}}, {"info": {"county": "Clarion", "url": "https://mapsengine.google.com/06136759344167181854-11153668168998282611-4/wms/?version=1.3.0", "state": "PA", "SiteID": "32548684-f646-5426-8bd3-cdb298ff0fd9", "bbox": "-79.5145849113,41.2409999955,-79.5026150887,41.2500000045", "year": 2013, "latitude": 41.2455, "options": {"layers": "06136759344167181854-17634790329248222990-4", "version": "1.3.0"}, "longitude": -79.5086, "class": "public"}}, {"info": {"county": "Clarion", "url": "https://mapsengine.google.com/06136759344167181854-11153668168998282611-4/wms/?version=1.3.0", "state": "PA", "SiteID": "eb469718-a2fb-5974-83e1-1a9cc5dc0f97", "bbox": "-79.4537625373,40.9951999955,-79.4418374627,41.0042000045", "year": 2013, "latitude": 40.9997, "options": {"layers": "06136759344167181854-17634790329248222990-4", "version": "1.3.0"}, "longitude": -79.4478, "class": "public"}}, {"info": {"county": "Mercer", "url": "https://mapsengine.google.com/06136759344167181854-11153668168998282611-4/wms/?version=1.3.0", "state": "PA", "SiteID": "9c8b6358-9b3d-538d-bbf4-ff20cc3e1e08", "bbox": "-80.4165347373,41.4562859955,-80.4045252627,41.4652860045", "year": 2013, "latitude": 41.460786, "options": {"layers": "06136759344167181854-16872361300740609449-4", "version": "1.3.0"}, "longitude": -80.41053, "class": "public"}}, {"info": {"county": "Blair", "url": "https://mapsengine.google.com/06136759344167181854-11153668168998282611-4/wms/?version=1.3.0", "state": "PA", "SiteID": "5018e265-161c-5119-8e11-b3ea5991c8a7", "bbox": "-78.5558058184,40.3580999955,-78.5439941816,40.3671000045", "year": 2013, "latitude": 40.3626, "options": {"layers": "06136759344167181854-16306107710083036950-4", "version": "1.3.0"}, "longitude": -78.5499, "class": "public"}}, {"info": {"county": "Tioga", "url": "https://mapsengine.google.com/06136759344167181854-11153668168998282611-4/wms/?version=1.3.0", "state": "PA", "SiteID": "2f1dda59-1523-5230-8347-6077a86a74a6", "bbox": "-77.508528747,41.7138999955,-77.496471253,41.7229000045", "year": 2013, "latitude": 41.7184, "options": {"layers": "06136759344167181854-14517973204373249050-4", "version": "1.3.0"}, "longitude": -77.5025, "class": "public"}}, {"info": {"county": "Tioga", "url": "https://mapsengine.google.com/06136759344167181854-11153668168998282611-4/wms/?version=1.3.0", "state": "PA", "SiteID": "d9e9017e-3af9-51c9-ba88-35a0c9f3a48a", "bbox": "-77.0323538409,41.9795999955,-77.0202461591,41.9886000045", "year": 2013, "latitude": 41.9841, "options": {"layers": "06136759344167181854-14517973204373249050-4", "version": "1.3.0"}, "longitude": -77.0263, "class": "public"}}, {"info": {"county": "Tioga", "url": "https://mapsengine.google.com/06136759344167181854-11153668168998282611-4/wms/?version=1.3.0", "state": "PA", "SiteID": "900ccfeb-449d-54c4-bd80-86cfef113425", "bbox": "-77.0999170112,41.5883999955,-77.0878829888,41.5974000045", "year": 2013, "latitude": 41.5929, "options": {"layers": "06136759344167181854-14517973204373249050-4", "version": "1.3.0"}, "longitude": -77.0939, "class": "public"}}, {"info": {"county": "Tioga", "url": "https://mapsengine.google.com/06136759344167181854-11153668168998282611-4/wms/?version=1.3.0", "state": "PA", "SiteID": "18a3b8e4-da3a-54c2-b449-2d3986334519", "bbox": "-76.9979387836,41.8205999955,-76.9858612164,41.8296000045", "year": 2013, "latitude": 41.8251, "options": {"layers": "06136759344167181854-14517973204373249050-4", "version": "1.3.0"}, "longitude": -76.9919, "class": "public"}}, {"info": {"county": "Tioga", "url": "https://mapsengine.google.com/06136759344167181854-11153668168998282611-4/wms/?version=1.3.0", "state": "PA", "SiteID": "0fcd46af-296d-5908-9fc7-f3dcb066ac02", "bbox": "-77.1265288689,41.7151999955,-77.1144711311,41.7242000045", "year": 2013, "latitude": 41.7197, "options": {"layers": "06136759344167181854-14517973204373249050-4", "version": "1.3.0"}, "longitude": -77.1205, "class": "public"}}, {"info": {"county": "Tioga", "url": "https://mapsengine.google.com/06136759344167181854-11153668168998282611-4/wms/?version=1.3.0", "state": "PA", "SiteID": "be74b418-dd67-5f32-a8d7-c85eeca5c4cb", "bbox": "-77.4121419459,41.8540999955,-77.4000580541,41.8631000045", "year": 2013, "latitude": 41.8586, "options": {"layers": "06136759344167181854-14517973204373249050-4", "version": "1.3.0"}, "longitude": -77.4061, "class": "public"}}, {"info": {"county": "Tioga", "url": "https://mapsengine.google.com/06136759344167181854-11153668168998282611-4/wms/?version=1.3.0", "state": "PA", "SiteID": "ad5bbac8-6351-5350-b37a-050fd1cd646f", "bbox": "-76.9719361916,41.7930999955,-76.9598638084,41.8021000045", "year": 2013, "latitude": 41.7976, "options": {"layers": "06136759344167181854-14517973204373249050-4", "version": "1.3.0"}, "longitude": -76.9659, "class": "public"}}, {"info": {"county": "Tioga", "url": "https://mapsengine.google.com/06136759344167181854-11153668168998282611-4/wms/?version=1.3.0", "state": "PA", "SiteID": "fe95b727-f1a1-5022-ab98-2ba079ae0cba", "bbox": "-76.9856543259,41.9846999955,-76.9735456741,41.9937000045", "year": 2013, "latitude": 41.9892, "options": {"layers": "06136759344167181854-14517973204373249050-4", "version": "1.3.0"}, "longitude": -76.9796, "class": "public"}}, {"info": {"county": "Tioga", "url": "https://mapsengine.google.com/06136759344167181854-11153668168998282611-4/wms/?version=1.3.0", "state": "PA", "SiteID": "c7e73c01-096c-5501-9faf-3a9dce817b2e", "bbox": "-77.0567299481,41.7266999955,-77.0446700519,41.7357000045", "year": 2013, "latitude": 41.7312, "options": {"layers": "06136759344167181854-14517973204373249050-4", "version": "1.3.0"}, "longitude": -77.0507, "class": "public"}}, {"info": {"county": "Tioga", "url": "https://mapsengine.google.com/06136759344167181854-11153668168998282611-4/wms/?version=1.3.0", "state": "PA", "SiteID": "b25e423c-1787-5a92-a632-a4502427b1e8", "bbox": "-77.3802302861,41.7302999955,-77.3681697139,41.7393000045", "year": 2013, "latitude": 41.7348, "options": {"layers": "06136759344167181854-14517973204373249050-4", "version": "1.3.0"}, "longitude": -77.3742, "class": "public"}}, {"info": {"county": "Tioga", "url": "https://mapsengine.google.com/06136759344167181854-11153668168998282611-4/wms/?version=1.3.0", "state": "PA", "SiteID": "d402ff44-1b3d-5203-a796-f131444a0737", "bbox": "-77.3495239688,41.6628999955,-77.3374760312,41.6719000045", "year": 2013, "latitude": 41.6674, "options": {"layers": "06136759344167181854-14517973204373249050-4", "version": "1.3.0"}, "longitude": -77.3435, "class": "public"}}, {"info": {"county": "Tioga", "url": "https://mapsengine.google.com/06136759344167181854-11153668168998282611-4/wms/?version=1.3.0", "state": "PA", "SiteID": "d698360e-11a4-5db7-b6c5-26be79c105e7", "bbox": "-77.2329335092,41.7645999955,-77.2208664908,41.7736000045", "year": 2013, "latitude": 41.7691, "options": {"layers": "06136759344167181854-14517973204373249050-4", "version": "1.3.0"}, "longitude": -77.2269, "class": "public"}}, {"info": {"county": "Tioga", "url": "https://mapsengine.google.com/06136759344167181854-11153668168998282611-4/wms/?version=1.3.0", "state": "PA", "SiteID": "39c36d1e-c5d1-5104-ac20-cde48f832441", "bbox": "-77.0605375861,41.8078999955,-77.0484624139,41.8169000045", "year": 2013, "latitude": 41.8124, "options": {"layers": "06136759344167181854-14517973204373249050-4", "version": "1.3.0"}, "longitude": -77.0545, "class": "public"}}, {"info": {"county": "Tioga", "url": "https://mapsengine.google.com/06136759344167181854-11153668168998282611-4/wms/?version=1.3.0", "state": "PA", "SiteID": "9745ac0d-a851-5a86-b094-022cb3774255", "bbox": "-76.9759244555,41.6680999955,-76.9638755445,41.6771000045", "year": 2013, "latitude": 41.6726, "options": {"layers": "06136759344167181854-14517973204373249050-4", "version": "1.3.0"}, "longitude": -76.9699, "class": "public"}}, {"info": {"county": "Tioga", "url": "https://mapsengine.google.com/06136759344167181854-11153668168998282611-4/wms/?version=1.3.0", "state": "PA", "SiteID": "f6872885-65d9-55e9-8bb7-6585eb385074", "bbox": "-77.5083541547,41.9828999955,-77.4962458453,41.9919000045", "year": 2013, "latitude": 41.9874, "options": {"layers": "06136759344167181854-14517973204373249050-4", "version": "1.3.0"}, "longitude": -77.5023, "class": "public"}}, {"info": {"county": "Tioga", "url": "https://mapsengine.google.com/06136759344167181854-11153668168998282611-4/wms/?version=1.3.0", "state": "PA", "SiteID": "9f11071c-a69e-59a0-ad2b-2c781317983f", "bbox": "-77.0235311125,41.7390999955,-77.0114688875,41.7481000045", "year": 2013, "latitude": 41.7436, "options": {"layers": "06136759344167181854-14517973204373249050-4", "version": "1.3.0"}, "longitude": -77.0175, "class": "public"}}, {"info": {"county": "Tioga", "url": "https://mapsengine.google.com/06136759344167181854-11153668168998282611-4/wms/?version=1.3.0", "state": "PA", "SiteID": "581a4539-faa2-54d2-9231-ea8923545e00", "bbox": "-77.1735265719,41.6906999955,-77.1614734281,41.6997000045", "year": 2013, "latitude": 41.6952, "options": {"layers": "06136759344167181854-14517973204373249050-4", "version": "1.3.0"}, "longitude": -77.1675, "class": "public"}}, {"info": {"county": "Tioga", "url": "https://mapsengine.google.com/06136759344167181854-11153668168998282611-4/wms/?version=1.3.0", "state": "PA", "SiteID": "97c830ca-747b-54cb-bb83-da4095002e0d", "bbox": "-76.9861187178,41.6066999955,-76.9740812822,41.6157000045", "year": 2013, "latitude": 41.6112, "options": {"layers": "06136759344167181854-14517973204373249050-4", "version": "1.3.0"}, "longitude": -76.9801, "class": "public"}}, {"info": {"county": "Tioga", "url": "https://mapsengine.google.com/06136759344167181854-11153668168998282611-4/wms/?version=1.3.0", "state": "PA", "SiteID": "88e169d1-c87a-5e4c-acd7-0ac5644b1946", "bbox": "-77.3377287282,41.7136999955,-77.3256712718,41.7227000045", "year": 2013, "latitude": 41.7182, "options": {"layers": "06136759344167181854-14517973204373249050-4", "version": "1.3.0"}, "longitude": -77.3317, "class": "public"}}, {"info": {"county": "Tioga", "url": "https://mapsengine.google.com/06136759344167181854-11153668168998282611-4/wms/?version=1.3.0", "state": "PA", "SiteID": "0da98ab4-4a3f-526f-ae27-0f6dc68122a4", "bbox": "-76.9427448582,41.8848999955,-76.9306551418,41.8939000045", "year": 2013, "latitude": 41.8894, "options": {"layers": "06136759344167181854-14517973204373249050-4", "version": "1.3.0"}, "longitude": -76.9367, "class": "public"}}, {"info": {"county": "Tioga", "url": "https://mapsengine.google.com/06136759344167181854-11153668168998282611-4/wms/?version=1.3.0", "state": "PA", "SiteID": "495d128d-6a87-50dd-b153-869474a2bd63", "bbox": "-77.3866253448,41.6775999955,-77.3745746552,41.6866000045", "year": 2013, "latitude": 41.6821, "options": {"layers": "06136759344167181854-14517973204373249050-4", "version": "1.3.0"}, "longitude": -77.3806, "class": "public"}}, {"info": {"county": "Tioga", "url": "https://mapsengine.google.com/06136759344167181854-11153668168998282611-4/wms/?version=1.3.0", "state": "PA", "SiteID": "98427f24-cc5b-5e27-a493-0b5877da0031", "bbox": "-77.362549956,41.9386999955,-77.350450044,41.9477000045", "year": 2013, "latitude": 41.9432, "options": {"layers": "06136759344167181854-14517973204373249050-4", "version": "1.3.0"}, "longitude": -77.3565, "class": "public"}}, {"info": {"county": "Tioga", "url": "https://mapsengine.google.com/06136759344167181854-11153668168998282611-4/wms/?version=1.3.0", "state": "PA", "SiteID": "9b52af88-d382-5775-83a9-a7ccdf12105a", "bbox": "-77.4164452462,41.8889999955,-77.4043547538,41.8980000045", "year": 2013, "latitude": 41.8935, "options": {"layers": "06136759344167181854-14517973204373249050-4", "version": "1.3.0"}, "longitude": -77.4104, "class": "public"}}, {"info": {"county": "Tioga", "url": "https://mapsengine.google.com/06136759344167181854-11153668168998282611-4/wms/?version=1.3.0", "state": "PA", "SiteID": "afc90413-46f5-5ab0-b6fc-517e175fef5e", "bbox": "-77.3822543639,41.9850999955,-77.3701456361,41.9941000045", "year": 2013, "latitude": 41.9896, "options": {"layers": "06136759344167181854-14517973204373249050-4", "version": "1.3.0"}, "longitude": -77.3762, "class": "public"}}, {"info": {"county": "Tioga", "url": "https://mapsengine.google.com/06136759344167181854-11153668168998282611-4/wms/?version=1.3.0", "state": "PA", "SiteID": "9a4c9be1-5ef7-5a60-aeec-28160bcaf719", "bbox": "-77.2379302673,41.7300999955,-77.2258697327,41.7391000045", "year": 2013, "latitude": 41.7346, "options": {"layers": "06136759344167181854-14517973204373249050-4", "version": "1.3.0"}, "longitude": -77.2319, "class": "public"}}, {"info": {"county": "Tioga", "url": "https://mapsengine.google.com/06136759344167181854-11153668168998282611-4/wms/?version=1.3.0", "state": "PA", "SiteID": "d3fc77ca-3cbd-57db-b0e1-6e14cf5c6bd3", "bbox": "-77.0429308683,41.7364999955,-77.0308691317,41.7455000045", "year": 2013, "latitude": 41.741, "options": {"layers": "06136759344167181854-14517973204373249050-4", "version": "1.3.0"}, "longitude": -77.0369, "class": "public"}}, {"info": {"county": "Tioga", "url": "https://mapsengine.google.com/06136759344167181854-11153668168998282611-4/wms/?version=1.3.0", "state": "PA", "SiteID": "8d1c0e26-6c69-5468-b53f-46005e9a48b8", "bbox": "-76.9077338572,41.7682999955,-76.8956661428,41.7773000045", "year": 2013, "latitude": 41.7728, "options": {"layers": "06136759344167181854-14517973204373249050-4", "version": "1.3.0"}, "longitude": -76.9017, "class": "public"}}, {"info": {"county": "Tioga", "url": "https://mapsengine.google.com/06136759344167181854-11153668168998282611-4/wms/?version=1.3.0", "state": "PA", "SiteID": "d746f723-c236-59ae-b85e-b2c6cbd96d04", "bbox": "-77.2437365967,41.7973999955,-77.2316634033,41.8064000045", "year": 2013, "latitude": 41.8019, "options": {"layers": "06136759344167181854-14517973204373249050-4", "version": "1.3.0"}, "longitude": -77.2377, "class": "public"}}, {"info": {"county": "Tioga", "url": "https://mapsengine.google.com/06136759344167181854-11153668168998282611-4/wms/?version=1.3.0", "state": "PA", "SiteID": "1160e3d6-5138-5402-9179-82631fbeb10b", "bbox": "-77.1374377275,41.8093999955,-77.1253622725,41.8184000045", "year": 2013, "latitude": 41.8139, "options": {"layers": "06136759344167181854-14517973204373249050-4", "version": "1.3.0"}, "longitude": -77.1314, "class": "public"}}, {"info": {"county": "Tioga", "url": "https://mapsengine.google.com/06136759344167181854-11153668168998282611-4/wms/?version=1.3.0", "state": "PA", "SiteID": "4bddc26b-6e4e-56e3-9d30-c0c1467c13c3", "bbox": "-76.9518374447,41.8063999955,-76.9397625553,41.8154000045", "year": 2013, "latitude": 41.8109, "options": {"layers": "06136759344167181854-14517973204373249050-4", "version": "1.3.0"}, "longitude": -76.9458, "class": "public"}}, {"info": {"county": "Tioga", "url": "https://mapsengine.google.com/06136759344167181854-11153668168998282611-4/wms/?version=1.3.0", "state": "PA", "SiteID": "36bd7144-a721-5977-816c-f6fc386322aa", "bbox": "-77.0181380103,41.8123999955,-77.0060619897,41.8214000045", "year": 2013, "latitude": 41.8169, "options": {"layers": "06136759344167181854-14517973204373249050-4", "version": "1.3.0"}, "longitude": -77.0121, "class": "public"}}, {"info": {"county": "Tioga", "url": "https://mapsengine.google.com/06136759344167181854-11153668168998282611-4/wms/?version=1.3.0", "state": "PA", "SiteID": "4c727742-a85e-599d-8a11-9bfeae3fb2be", "bbox": "-77.0352138819,41.5547999955,-77.0231861181,41.5638000045", "year": 2013, "latitude": 41.5593, "options": {"layers": "06136759344167181854-14517973204373249050-4", "version": "1.3.0"}, "longitude": -77.0292, "class": "public"}}, {"info": {"county": "Tioga", "url": "https://mapsengine.google.com/06136759344167181854-11153668168998282611-4/wms/?version=1.3.0", "state": "PA", "SiteID": "be31da81-db13-5e6e-b53c-d777a688c500", "bbox": "-77.0189362199,41.7933999955,-77.0068637801,41.8024000045", "year": 2013, "latitude": 41.7979, "options": {"layers": "06136759344167181854-14517973204373249050-4", "version": "1.3.0"}, "longitude": -77.0129, "class": "public"}}, {"info": {"county": "Tioga", "url": "https://mapsengine.google.com/06136759344167181854-11153668168998282611-4/wms/?version=1.3.0", "state": "PA", "SiteID": "8c1395c2-414a-5e52-bf9c-bb14edf7a0cf", "bbox": "-76.9725397647,41.8309999955,-76.9604602353,41.8400000045", "year": 2013, "latitude": 41.8355, "options": {"layers": "06136759344167181854-14517973204373249050-4", "version": "1.3.0"}, "longitude": -76.9665, "class": "public"}}, {"info": {"county": "Tioga", "url": "https://mapsengine.google.com/06136759344167181854-11153668168998282611-4/wms/?version=1.3.0", "state": "PA", "SiteID": "4205b40e-19f2-5d67-be3e-6503f1f2aa0d", "bbox": "-77.567027406,41.6995999955,-77.554972594,41.7086000045", "year": 2013, "latitude": 41.7041, "options": {"layers": "06136759344167181854-14517973204373249050-4", "version": "1.3.0"}, "longitude": -77.561, "class": "public"}}, {"info": {"county": "Tioga", "url": "https://mapsengine.google.com/06136759344167181854-11153668168998282611-4/wms/?version=1.3.0", "state": "PA", "SiteID": "2fd49d09-7cf8-5488-9465-01a2e91d4c96", "bbox": "-77.2074313849,41.7419999955,-77.1953686151,41.7510000045", "year": 2013, "latitude": 41.7465, "options": {"layers": "06136759344167181854-14517973204373249050-4", "version": "1.3.0"}, "longitude": -77.2014, "class": "public"}}, {"info": {"county": "Tioga", "url": "https://mapsengine.google.com/06136759344167181854-11153668168998282611-4/wms/?version=1.3.0", "state": "PA", "SiteID": "acdcec2f-c602-547e-a86b-4b98e75734d9", "bbox": "-77.0019361257,41.7923999955,-76.9898638743,41.8014000045", "year": 2013, "latitude": 41.7969, "options": {"layers": "06136759344167181854-14517973204373249050-4", "version": "1.3.0"}, "longitude": -76.9959, "class": "public"}}, {"info": {"county": "Tioga", "url": "https://mapsengine.google.com/06136759344167181854-11153668168998282611-4/wms/?version=1.3.0", "state": "PA", "SiteID": "0a5cd1d9-35b9-5455-bca0-3e22a9066d69", "bbox": "-77.1468302016,41.7293999955,-77.1347697984,41.7384000045", "year": 2013, "latitude": 41.7339, "options": {"layers": "06136759344167181854-14517973204373249050-4", "version": "1.3.0"}, "longitude": -77.1408, "class": "public"}}, {"info": {"county": "Tioga", "url": "https://mapsengine.google.com/06136759344167181854-11153668168998282611-4/wms/?version=1.3.0", "state": "PA", "SiteID": "00b0d29b-a9cb-5b03-b20e-7dc2ba20455d", "bbox": "-77.1433273778,41.6992999955,-77.1312726222,41.7083000045", "year": 2013, "latitude": 41.7038, "options": {"layers": "06136759344167181854-14517973204373249050-4", "version": "1.3.0"}, "longitude": -77.1373, "class": "public"}}, {"info": {"county": "Tioga", "url": "https://mapsengine.google.com/06136759344167181854-11153668168998282611-4/wms/?version=1.3.0", "state": "PA", "SiteID": "9b1bd6e1-a530-5f6d-8701-37e3b9d0efd0", "bbox": "-77.3444320332,41.7488999955,-77.3323679668,41.7579000045", "year": 2013, "latitude": 41.7534, "options": {"layers": "06136759344167181854-14517973204373249050-4", "version": "1.3.0"}, "longitude": -77.3384, "class": "public"}}, {"info": {"county": "Tioga", "url": "https://mapsengine.google.com/06136759344167181854-11153668168998282611-4/wms/?version=1.3.0", "state": "PA", "SiteID": "002ed62c-8b8e-5e9d-a23f-3cd7c37e83b4", "bbox": "-77.1478329074,41.7581999955,-77.1357670926,41.7672000045", "year": 2013, "latitude": 41.7627, "options": {"layers": "06136759344167181854-14517973204373249050-4", "version": "1.3.0"}, "longitude": -77.1418, "class": "public"}}, {"info": {"county": "Tioga", "url": "https://mapsengine.google.com/06136759344167181854-11153668168998282611-4/wms/?version=1.3.0", "state": "PA", "SiteID": "ee305593-9e63-569b-9f94-a5506659ec14", "bbox": "-77.1713303236,41.7306999955,-77.1592696764,41.7397000045", "year": 2013, "latitude": 41.7352, "options": {"layers": "06136759344167181854-14517973204373249050-4", "version": "1.3.0"}, "longitude": -77.1653, "class": "public"}}, {"info": {"county": "Tioga", "url": "https://mapsengine.google.com/06136759344167181854-11153668168998282611-4/wms/?version=1.3.0", "state": "PA", "SiteID": "efbc578a-dae0-5bb5-9083-e959f9499eed", "bbox": "-77.263245019,41.8865999955,-77.251154981,41.8956000045", "year": 2013, "latitude": 41.8911, "options": {"layers": "06136759344167181854-14517973204373249050-4", "version": "1.3.0"}, "longitude": -77.2572, "class": "public"}}, {"info": {"county": "Tioga", "url": "https://mapsengine.google.com/06136759344167181854-11153668168998282611-4/wms/?version=1.3.0", "state": "PA", "SiteID": "98fe6f03-9740-5c43-80f5-352645d7c13a", "bbox": "-76.9843247363,41.6710999955,-76.9722752637,41.6801000045", "year": 2013, "latitude": 41.6756, "options": {"layers": "06136759344167181854-14517973204373249050-4", "version": "1.3.0"}, "longitude": -76.9783, "class": "public"}}, {"info": {"county": "Tioga", "url": "https://mapsengine.google.com/06136759344167181854-11153668168998282611-4/wms/?version=1.3.0", "state": "PA", "SiteID": "32840a7f-95e0-5d42-92e5-de43cb2c233c", "bbox": "-76.9269327946,41.7569999955,-76.9148672054,41.7660000045", "year": 2013, "latitude": 41.7615, "options": {"layers": "06136759344167181854-14517973204373249050-4", "version": "1.3.0"}, "longitude": -76.9209, "class": "public"}}, {"info": {"county": "Tioga", "url": "https://mapsengine.google.com/06136759344167181854-11153668168998282611-4/wms/?version=1.3.0", "state": "PA", "SiteID": "b955eafa-389c-5241-bcaa-18da3ce9a634", "bbox": "-77.0751140494,41.5565999955,-77.0630859506,41.5656000045", "year": 2013, "latitude": 41.5611, "options": {"layers": "06136759344167181854-14517973204373249050-4", "version": "1.3.0"}, "longitude": -77.0691, "class": "public"}}, {"info": {"county": "Tioga", "url": "https://mapsengine.google.com/06136759344167181854-11153668168998282611-4/wms/?version=1.3.0", "state": "PA", "SiteID": "18e1956d-e66c-56ae-8a15-453e1aa85b2b", "bbox": "-77.0473486945,41.9253999955,-77.0352513055,41.9344000045", "year": 2013, "latitude": 41.9299, "options": {"layers": "06136759344167181854-14517973204373249050-4", "version": "1.3.0"}, "longitude": -77.0413, "class": "public"}}, {"info": {"county": "Tioga", "url": "https://mapsengine.google.com/06136759344167181854-11153668168998282611-4/wms/?version=1.3.0", "state": "PA", "SiteID": "76975d1f-d565-5592-90ff-20d5ea1c8e47", "bbox": "-77.3953498801,41.9378999955,-77.3832501199,41.9469000045", "year": 2013, "latitude": 41.9424, "options": {"layers": "06136759344167181854-14517973204373249050-4", "version": "1.3.0"}, "longitude": -77.3893, "class": "public"}}, {"info": {"county": "Tioga", "url": "https://mapsengine.google.com/06136759344167181854-11153668168998282611-4/wms/?version=1.3.0", "state": "PA", "SiteID": "37688d7f-edb5-51f9-9877-a856e9c236c3", "bbox": "-77.3183424467,41.8593999955,-77.3062575533,41.8684000045", "year": 2013, "latitude": 41.8639, "options": {"layers": "06136759344167181854-14517973204373249050-4", "version": "1.3.0"}, "longitude": -77.3123, "class": "public"}}, {"info": {"county": "Tioga", "url": "https://mapsengine.google.com/06136759344167181854-11153668168998282611-4/wms/?version=1.3.0", "state": "PA", "SiteID": "714803b4-2558-5bb1-836a-6d40f8758c00", "bbox": "-77.4273471969,41.9095999955,-77.4152528031,41.9186000045", "year": 2013, "latitude": 41.9141, "options": {"layers": "06136759344167181854-14517973204373249050-4", "version": "1.3.0"}, "longitude": -77.4213, "class": "public"}}, {"info": {"county": "Tioga", "url": "https://mapsengine.google.com/06136759344167181854-11153668168998282611-4/wms/?version=1.3.0", "state": "PA", "SiteID": "3d43e95a-716f-5d1a-8427-0b85bdf7841f", "bbox": "-76.9976275185,41.7007999955,-76.9855724815,41.7098000045", "year": 2013, "latitude": 41.7053, "options": {"layers": "06136759344167181854-14517973204373249050-4", "version": "1.3.0"}, "longitude": -76.9916, "class": "public"}}, {"info": {"county": "Tioga", "url": "https://mapsengine.google.com/06136759344167181854-11153668168998282611-4/wms/?version=1.3.0", "state": "PA", "SiteID": "e5cafb5f-413d-5fc6-ad18-151e3ed405cf", "bbox": "-77.3666492635,41.9313999955,-77.3545507365,41.9404000045", "year": 2013, "latitude": 41.9359, "options": {"layers": "06136759344167181854-14517973204373249050-4", "version": "1.3.0"}, "longitude": -77.3606, "class": "public"}}, {"info": {"county": "Tioga", "url": "https://mapsengine.google.com/06136759344167181854-11153668168998282611-4/wms/?version=1.3.0", "state": "PA", "SiteID": "36777d30-aa1a-509e-9aa0-3c772eceb7c9", "bbox": "-76.9551410864,41.8449999955,-76.9430589136,41.8540000045", "year": 2013, "latitude": 41.8495, "options": {"layers": "06136759344167181854-14517973204373249050-4", "version": "1.3.0"}, "longitude": -76.9491, "class": "public"}}, {"info": {"county": "Tioga", "url": "https://mapsengine.google.com/06136759344167181854-11153668168998282611-4/wms/?version=1.3.0", "state": "PA", "SiteID": "50563242-1270-5da5-a127-ada2e083c9e7", "bbox": "-77.2716355889,41.7866999955,-77.2595644111,41.7957000045", "year": 2013, "latitude": 41.7912, "options": {"layers": "06136759344167181854-14517973204373249050-4", "version": "1.3.0"}, "longitude": -77.2656, "class": "public"}}, {"info": {"county": "Tioga", "url": "https://mapsengine.google.com/06136759344167181854-11153668168998282611-4/wms/?version=1.3.0", "state": "PA", "SiteID": "7ae75059-34da-566d-8336-a5f1e8ce71ca", "bbox": "-77.3854522442,41.9627999955,-77.3733477558,41.9718000045", "year": 2013, "latitude": 41.9673, "options": {"layers": "06136759344167181854-14517973204373249050-4", "version": "1.3.0"}, "longitude": -77.3794, "class": "public"}}, {"info": {"county": "Tioga", "url": "https://mapsengine.google.com/06136759344167181854-11153668168998282611-4/wms/?version=1.3.0", "state": "PA", "SiteID": "ff13c441-1c45-5b7c-a76a-eaa5010aeb69", "bbox": "-76.9506317607,41.7459999955,-76.9385682393,41.7550000045", "year": 2013, "latitude": 41.7505, "options": {"layers": "06136759344167181854-14517973204373249050-4", "version": "1.3.0"}, "longitude": -76.9446, "class": "public"}}, {"info": {"county": "Tioga", "url": "https://mapsengine.google.com/06136759344167181854-11153668168998282611-4/wms/?version=1.3.0", "state": "PA", "SiteID": "1281ade3-6330-5fdb-930e-aed571593d41", "bbox": "-77.2625162563,41.5802999955,-77.2504837437,41.5893000045", "year": 2013, "latitude": 41.5848, "options": {"layers": "06136759344167181854-14517973204373249050-4", "version": "1.3.0"}, "longitude": -77.2565, "class": "public"}}, {"info": {"county": "Tioga", "url": "https://mapsengine.google.com/06136759344167181854-11153668168998282611-4/wms/?version=1.3.0", "state": "PA", "SiteID": "72093e05-a60a-5675-9b7b-6fdfd7e27692", "bbox": "-76.953417841,41.5972999955,-76.941382159,41.6063000045", "year": 2013, "latitude": 41.6018, "options": {"layers": "06136759344167181854-14517973204373249050-4", "version": "1.3.0"}, "longitude": -76.9474, "class": "public"}}, {"info": {"county": "Tioga", "url": "https://mapsengine.google.com/06136759344167181854-11153668168998282611-4/wms/?version=1.3.0", "state": "PA", "SiteID": "f9351f58-dbca-5ac0-856d-cf8ec5e5e07f", "bbox": "-77.1362331895,41.7611999955,-77.1241668105,41.7702000045", "year": 2013, "latitude": 41.7657, "options": {"layers": "06136759344167181854-14517973204373249050-4", "version": "1.3.0"}, "longitude": -77.1302, "class": "public"}}, {"info": {"county": "Tioga", "url": "https://mapsengine.google.com/06136759344167181854-11153668168998282611-4/wms/?version=1.3.0", "state": "PA", "SiteID": "617d6280-0dda-53c3-bb7f-9b85e839ad3f", "bbox": "-77.253626525,41.6901999955,-77.241573475,41.6992000045", "year": 2013, "latitude": 41.6947, "options": {"layers": "06136759344167181854-14517973204373249050-4", "version": "1.3.0"}, "longitude": -77.2476, "class": "public"}}, {"info": {"county": "Tioga", "url": "https://mapsengine.google.com/06136759344167181854-11153668168998282611-4/wms/?version=1.3.0", "state": "PA", "SiteID": "dc306d62-0d41-5fa8-938d-40fe8507cba4", "bbox": "-77.3927519877,41.9600999955,-77.3806480123,41.9691000045", "year": 2013, "latitude": 41.9646, "options": {"layers": "06136759344167181854-14517973204373249050-4", "version": "1.3.0"}, "longitude": -77.3867, "class": "public"}}, {"info": {"county": "Tioga", "url": "https://mapsengine.google.com/06136759344167181854-11153668168998282611-4/wms/?version=1.3.0", "state": "PA", "SiteID": "cce7c777-5c2f-5cee-80d9-27c4a02baa44", "bbox": "-77.3268468843,41.9062999955,-77.3147531157,41.9153000045", "year": 2013, "latitude": 41.9108, "options": {"layers": "06136759344167181854-14517973204373249050-4", "version": "1.3.0"}, "longitude": -77.3208, "class": "public"}}, {"info": {"county": "Tioga", "url": "https://mapsengine.google.com/06136759344167181854-11153668168998282611-4/wms/?version=1.3.0", "state": "PA", "SiteID": "48d6042c-b7af-548d-9bd4-649c323642b1", "bbox": "-77.2338383497,41.8159999955,-77.2217616503,41.8250000045", "year": 2013, "latitude": 41.8205, "options": {"layers": "06136759344167181854-14517973204373249050-4", "version": "1.3.0"}, "longitude": -77.2278, "class": "public"}}, {"info": {"county": "Tioga", "url": "https://mapsengine.google.com/06136759344167181854-11153668168998282611-4/wms/?version=1.3.0", "state": "PA", "SiteID": "af28426a-a9fb-5bda-b1c1-133eb839f1ee", "bbox": "-77.1271176825,41.5955999955,-77.1150823175,41.6046000045", "year": 2013, "latitude": 41.6001, "options": {"layers": "06136759344167181854-14517973204373249050-4", "version": "1.3.0"}, "longitude": -77.1211, "class": "public"}}, {"info": {"county": "Tioga", "url": "https://mapsengine.google.com/06136759344167181854-11153668168998282611-4/wms/?version=1.3.0", "state": "PA", "SiteID": "b8ae44e8-2480-5f28-8632-255930989687", "bbox": "-76.9234040109,41.5991219955,-76.9113679891,41.6081220045", "year": 2013, "latitude": 41.603622, "options": {"layers": "06136759344167181854-14517973204373249050-4", "version": "1.3.0"}, "longitude": -76.917386, "class": "public"}}, {"info": {"county": "Tioga", "url": "https://mapsengine.google.com/06136759344167181854-11153668168998282611-4/wms/?version=1.3.0", "state": "PA", "SiteID": "b6c93b6b-7d60-5028-a92f-ec6fa660a080", "bbox": "-77.0682196236,41.5949689955,-77.0561843764,41.6039690045", "year": 2013, "latitude": 41.599469, "options": {"layers": "06136759344167181854-14517973204373249050-4", "version": "1.3.0"}, "longitude": -77.062202, "class": "public"}}, {"info": {"county": "Tioga", "url": "https://mapsengine.google.com/06136759344167181854-11153668168998282611-4/wms/?version=1.3.0", "state": "PA", "SiteID": "9ee3a121-db3c-59ac-bb3c-bc5358fd6001", "bbox": "-77.33361596,41.6414189955,-77.32157204,41.6504190045", "year": 2013, "latitude": 41.645919, "options": {"layers": "06136759344167181854-14517973204373249050-4", "version": "1.3.0"}, "longitude": -77.327594, "class": "public"}}, {"info": {"county": "Tioga", "url": "https://mapsengine.google.com/06136759344167181854-11153668168998282611-4/wms/?version=1.3.0", "state": "PA", "SiteID": "0716cc4a-4e08-5a99-806d-6196939520de", "bbox": "-77.0315996818,41.5848659955,-77.0195663182,41.5938660045", "year": 2013, "latitude": 41.589366, "options": {"layers": "06136759344167181854-14517973204373249050-4", "version": "1.3.0"}, "longitude": -77.025583, "class": "public"}}, {"info": {"county": "Tioga", "url": "https://mapsengine.google.com/06136759344167181854-11153668168998282611-4/wms/?version=1.3.0", "state": "PA", "SiteID": "4cb50eec-e3a8-5404-9961-f4edca9912ad", "bbox": "-77.1003771273,41.7605389955,-77.0883108727,41.7695390045", "year": 2013, "latitude": 41.765039, "options": {"layers": "06136759344167181854-14517973204373249050-4", "version": "1.3.0"}, "longitude": -77.094344, "class": "public"}}, {"info": {"county": "Tioga", "url": "https://mapsengine.google.com/06136759344167181854-11153668168998282611-4/wms/?version=1.3.0", "state": "PA", "SiteID": "2491c9ca-a264-5fe9-b0c8-820c4a05ccd6", "bbox": "-77.03809845,41.6893999955,-77.02604555,41.6984000045", "year": 2013, "latitude": 41.6939, "options": {"layers": "06136759344167181854-14517973204373249050-4", "version": "1.3.0"}, "longitude": -77.032072, "class": "public"}}, {"info": {"county": "Tioga", "url": "https://mapsengine.google.com/06136759344167181854-11153668168998282611-4/wms/?version=1.3.0", "state": "PA", "SiteID": "8e7baadb-4228-53f5-92e1-40bb13c9d812", "bbox": "-77.1218310244,41.8231529955,-77.1097529756,41.8321530045", "year": 2013, "latitude": 41.827653, "options": {"layers": "06136759344167181854-14517973204373249050-4", "version": "1.3.0"}, "longitude": -77.115792, "class": "public"}}, {"info": {"county": "Tioga", "url": "https://mapsengine.google.com/06136759344167181854-11153668168998282611-4/wms/?version=1.3.0", "state": "PA", "SiteID": "f477e17a-3ce9-538b-9092-c6d0ca2663fc", "bbox": "-77.0785802287,41.5907329955,-77.0665457713,41.5997330045", "year": 2013, "latitude": 41.595233, "options": {"layers": "06136759344167181854-14517973204373249050-4", "version": "1.3.0"}, "longitude": -77.072563, "class": "public"}}, {"info": {"county": "Tioga", "url": "https://mapsengine.google.com/06136759344167181854-11153668168998282611-4/wms/?version=1.3.0", "state": "PA", "SiteID": "2e4f4f9e-3f6d-562b-b161-e80873654e08", "bbox": "-77.051756066,41.6211439955,-77.039715934,41.6301440045", "year": 2013, "latitude": 41.625644, "options": {"layers": "06136759344167181854-14517973204373249050-4", "version": "1.3.0"}, "longitude": -77.045736, "class": "public"}}, {"info": {"county": "Susquehanna", "url": "https://mapsengine.google.com/06136759344167181854-11153668168998282611-4/wms/?version=1.3.0", "state": "PA", "SiteID": "2065b481-9adf-514d-a44a-b6e20c93e8e1", "bbox": "-76.0905226407,41.6486999955,-76.0784773593,41.6577000045", "year": 2013, "latitude": 41.6532, "options": {"layers": "06136759344167181854-14352042435009570491-4", "version": "1.3.0"}, "longitude": -76.0845, "class": "public"}}, {"info": {"county": "Susquehanna", "url": "https://mapsengine.google.com/06136759344167181854-11153668168998282611-4/wms/?version=1.3.0", "state": "PA", "SiteID": "f2f60b1f-6bcb-56c7-a263-6e97cb489787", "bbox": "-76.0485224163,41.6462999955,-76.0364775837,41.6553000045", "year": 2013, "latitude": 41.6508, "options": {"layers": "06136759344167181854-14352042435009570491-4", "version": "1.3.0"}, "longitude": -76.0425, "class": "public"}}, {"info": {"county": "Susquehanna", "url": "https://mapsengine.google.com/06136759344167181854-11153668168998282611-4/wms/?version=1.3.0", "state": "PA", "SiteID": "a3135420-a6d7-5dc5-a41f-5d4581e3a8a0", "bbox": "-75.9444265063,41.6899999955,-75.9323734937,41.6990000045", "year": 2013, "latitude": 41.6945, "options": {"layers": "06136759344167181854-14352042435009570491-4", "version": "1.3.0"}, "longitude": -75.9384, "class": "public"}}, {"info": {"county": "Susquehanna", "url": "https://mapsengine.google.com/06136759344167181854-11153668168998282611-4/wms/?version=1.3.0", "state": "PA", "SiteID": "d3d60f3b-8bb1-523d-b5d5-0d1375a2d1e7", "bbox": "-75.9351277341,41.7030999955,-75.9230722659,41.7121000045", "year": 2013, "latitude": 41.7076, "options": {"layers": "06136759344167181854-14352042435009570491-4", "version": "1.3.0"}, "longitude": -75.9291, "class": "public"}}, {"info": {"county": "Susquehanna", "url": "https://mapsengine.google.com/06136759344167181854-11153668168998282611-4/wms/?version=1.3.0", "state": "PA", "SiteID": "25e96bc3-6905-5712-8b20-90870731b6ac", "bbox": "-75.971433481,41.7642999955,-75.959366519,41.7733000045", "year": 2013, "latitude": 41.7688, "options": {"layers": "06136759344167181854-14352042435009570491-4", "version": "1.3.0"}, "longitude": -75.9654, "class": "public"}}, {"info": {"county": "Susquehanna", "url": "https://mapsengine.google.com/06136759344167181854-11153668168998282611-4/wms/?version=1.3.0", "state": "PA", "SiteID": "33963fa6-f8c1-5abf-b04c-9648fab0e25d", "bbox": "-76.0544332177,41.7614999955,-76.0423667823,41.7705000045", "year": 2013, "latitude": 41.766, "options": {"layers": "06136759344167181854-14352042435009570491-4", "version": "1.3.0"}, "longitude": -76.0484, "class": "public"}}, {"info": {"county": "Susquehanna", "url": "https://mapsengine.google.com/06136759344167181854-11153668168998282611-4/wms/?version=1.3.0", "state": "PA", "SiteID": "260102cf-85db-5c8e-a2ae-6d67e8d89e25", "bbox": "-75.9008442148,41.8780999955,-75.8887557852,41.8871000045", "year": 2013, "latitude": 41.8826, "options": {"layers": "06136759344167181854-14352042435009570491-4", "version": "1.3.0"}, "longitude": -75.8948, "class": "public"}}, {"info": {"county": "Susquehanna", "url": "https://mapsengine.google.com/06136759344167181854-11153668168998282611-4/wms/?version=1.3.0", "state": "PA", "SiteID": "bb5cbd71-806e-5d2d-8e9a-9cc72578314e", "bbox": "-75.9714348076,41.7783999955,-75.9593651924,41.7874000045", "year": 2013, "latitude": 41.7829, "options": {"layers": "06136759344167181854-14352042435009570491-4", "version": "1.3.0"}, "longitude": -75.9654, "class": "public"}}, {"info": {"county": "Susquehanna", "url": "https://mapsengine.google.com/06136759344167181854-11153668168998282611-4/wms/?version=1.3.0", "state": "PA", "SiteID": "a0e33879-b89c-54ea-932b-3ff1ef23a774", "bbox": "-75.9365425885,41.8608999955,-75.9244574115,41.8699000045", "year": 2013, "latitude": 41.8654, "options": {"layers": "06136759344167181854-14352042435009570491-4", "version": "1.3.0"}, "longitude": -75.9305, "class": "public"}}, {"info": {"county": "Susquehanna", "url": "https://mapsengine.google.com/06136759344167181854-11153668168998282611-4/wms/?version=1.3.0", "state": "PA", "SiteID": "56e43791-5c0d-5016-b53a-a7f17083b566", "bbox": "-75.9285312252,41.7402999955,-75.9164687748,41.7493000045", "year": 2013, "latitude": 41.7448, "options": {"layers": "06136759344167181854-14352042435009570491-4", "version": "1.3.0"}, "longitude": -75.9225, "class": "public"}}, {"info": {"county": "Susquehanna", "url": "https://mapsengine.google.com/06136759344167181854-11153668168998282611-4/wms/?version=1.3.0", "state": "PA", "SiteID": "5a2a2885-5a90-57ae-8d4a-769c5995cff1", "bbox": "-75.9257426547,41.8615999955,-75.9136573453,41.8706000045", "year": 2013, "latitude": 41.8661, "options": {"layers": "06136759344167181854-14352042435009570491-4", "version": "1.3.0"}, "longitude": -75.9197, "class": "public"}}, {"info": {"county": "Susquehanna", "url": "https://mapsengine.google.com/06136759344167181854-11153668168998282611-4/wms/?version=1.3.0", "state": "PA", "SiteID": "7ca548ee-537d-530b-ad8e-d952aaae4015", "bbox": "-75.9156332553,41.7618999955,-75.9035667447,41.7709000045", "year": 2013, "latitude": 41.7664, "options": {"layers": "06136759344167181854-14352042435009570491-4", "version": "1.3.0"}, "longitude": -75.9096, "class": "public"}}, {"info": {"county": "Susquehanna", "url": "https://mapsengine.google.com/06136759344167181854-11153668168998282611-4/wms/?version=1.3.0", "state": "PA", "SiteID": "52e13486-73bd-58df-a1a7-bcecc2b6256e", "bbox": "-75.9159406898,41.8407999955,-75.9038593102,41.8498000045", "year": 2013, "latitude": 41.8453, "options": {"layers": "06136759344167181854-14352042435009570491-4", "version": "1.3.0"}, "longitude": -75.9099, "class": "public"}}, {"info": {"county": "Susquehanna", "url": "https://mapsengine.google.com/06136759344167181854-11153668168998282611-4/wms/?version=1.3.0", "state": "PA", "SiteID": "dc9f9333-3f24-582e-9ac3-22d044f59662", "bbox": "-75.9156363706,41.7949999955,-75.9035636294,41.8040000045", "year": 2013, "latitude": 41.7995, "options": {"layers": "06136759344167181854-14352042435009570491-4", "version": "1.3.0"}, "longitude": -75.9096, "class": "public"}}, {"info": {"county": "Susquehanna", "url": "https://mapsengine.google.com/06136759344167181854-11153668168998282611-4/wms/?version=1.3.0", "state": "PA", "SiteID": "9478d435-b6d7-56a1-8489-614aa86700db", "bbox": "-75.9145298167,41.7252999955,-75.9024701833,41.7343000045", "year": 2013, "latitude": 41.7298, "options": {"layers": "06136759344167181854-14352042435009570491-4", "version": "1.3.0"}, "longitude": -75.9085, "class": "public"}}, {"info": {"county": "Susquehanna", "url": "https://mapsengine.google.com/06136759344167181854-11153668168998282611-4/wms/?version=1.3.0", "state": "PA", "SiteID": "10ea8e44-1290-5765-81dd-00a0908979f8", "bbox": "-75.9154294037,41.7208999955,-75.9033705963,41.7299000045", "year": 2013, "latitude": 41.7254, "options": {"layers": "06136759344167181854-14352042435009570491-4", "version": "1.3.0"}, "longitude": -75.9094, "class": "public"}}, {"info": {"county": "Susquehanna", "url": "https://mapsengine.google.com/06136759344167181854-11153668168998282611-4/wms/?version=1.3.0", "state": "PA", "SiteID": "09c7cd84-77e6-531f-8676-3e57bce8950d", "bbox": "-75.9134272935,41.6983999955,-75.9013727065,41.7074000045", "year": 2013, "latitude": 41.7029, "options": {"layers": "06136759344167181854-14352042435009570491-4", "version": "1.3.0"}, "longitude": -75.9074, "class": "public"}}, {"info": {"county": "Susquehanna", "url": "https://mapsengine.google.com/06136759344167181854-11153668168998282611-4/wms/?version=1.3.0", "state": "PA", "SiteID": "c5851dd9-6531-5108-95b0-37d2bade0c8f", "bbox": "-75.912527931,41.7051999955,-75.900472069,41.7142000045", "year": 2013, "latitude": 41.7097, "options": {"layers": "06136759344167181854-14352042435009570491-4", "version": "1.3.0"}, "longitude": -75.9065, "class": "public"}}, {"info": {"county": "Susquehanna", "url": "https://mapsengine.google.com/06136759344167181854-11153668168998282611-4/wms/?version=1.3.0", "state": "PA", "SiteID": "0862c1e3-6291-5275-aae1-578cff1ab567", "bbox": "-75.9091319298,41.7477999955,-75.8970680702,41.7568000045", "year": 2013, "latitude": 41.7523, "options": {"layers": "06136759344167181854-14352042435009570491-4", "version": "1.3.0"}, "longitude": -75.9031, "class": "public"}}, {"info": {"county": "Susquehanna", "url": "https://mapsengine.google.com/06136759344167181854-11153668168998282611-4/wms/?version=1.3.0", "state": "PA", "SiteID": "cd847d6e-e50d-5814-bff5-534d6049b4ff", "bbox": "-75.9132267124,41.6921999955,-75.9011732876,41.7012000045", "year": 2013, "latitude": 41.6967, "options": {"layers": "06136759344167181854-14352042435009570491-4", "version": "1.3.0"}, "longitude": -75.9072, "class": "public"}}, {"info": {"county": "Susquehanna", "url": "https://mapsengine.google.com/06136759344167181854-11153668168998282611-4/wms/?version=1.3.0", "state": "PA", "SiteID": "e4ad5ad9-1dfa-5054-9025-368a87c0f9de", "bbox": "-75.9111257194,41.6815999955,-75.8990742806,41.6906000045", "year": 2013, "latitude": 41.6861, "options": {"layers": "06136759344167181854-14352042435009570491-4", "version": "1.3.0"}, "longitude": -75.9051, "class": "public"}}, {"info": {"county": "Susquehanna", "url": "https://mapsengine.google.com/06136759344167181854-11153668168998282611-4/wms/?version=1.3.0", "state": "PA", "SiteID": "bfb753ab-2301-5838-b6ed-86109c2f7c38", "bbox": "-75.9091294882,41.7217999955,-75.8970705118,41.7308000045", "year": 2013, "latitude": 41.7263, "options": {"layers": "06136759344167181854-14352042435009570491-4", "version": "1.3.0"}, "longitude": -75.9031, "class": "public"}}, {"info": {"county": "Susquehanna", "url": "https://mapsengine.google.com/06136759344167181854-11153668168998282611-4/wms/?version=1.3.0", "state": "PA", "SiteID": "8bcb4350-857f-51c5-a610-18b120ffd6cc", "bbox": "-75.9052287751,41.7141999955,-75.8931712249,41.7232000045", "year": 2013, "latitude": 41.7187, "options": {"layers": "06136759344167181854-14352042435009570491-4", "version": "1.3.0"}, "longitude": -75.8992, "class": "public"}}, {"info": {"county": "Susquehanna", "url": "https://mapsengine.google.com/06136759344167181854-11153668168998282611-4/wms/?version=1.3.0", "state": "PA", "SiteID": "274d92ce-2c45-554b-83de-a35239bd373a", "bbox": "-75.9027455964,41.8926999955,-75.8906544036,41.9017000045", "year": 2013, "latitude": 41.8972, "options": {"layers": "06136759344167181854-14352042435009570491-4", "version": "1.3.0"}, "longitude": -75.8967, "class": "public"}}, {"info": {"county": "Susquehanna", "url": "https://mapsengine.google.com/06136759344167181854-11153668168998282611-4/wms/?version=1.3.0", "state": "PA", "SiteID": "3ad6d959-5290-5aee-89db-49a60b0607d0", "bbox": "-75.9069281279,41.7072999955,-75.8948718721,41.7163000045", "year": 2013, "latitude": 41.7118, "options": {"layers": "06136759344167181854-14352042435009570491-4", "version": "1.3.0"}, "longitude": -75.9009, "class": "public"}}, {"info": {"county": "Susquehanna", "url": "https://mapsengine.google.com/06136759344167181854-11153668168998282611-4/wms/?version=1.3.0", "state": "PA", "SiteID": "2c4ff9d2-58d0-5fbb-a863-1207fdc1f71b", "bbox": "-75.8998392741,41.8257999955,-75.8877607259,41.8348000045", "year": 2013, "latitude": 41.8303, "options": {"layers": "06136759344167181854-14352042435009570491-4", "version": "1.3.0"}, "longitude": -75.8938, "class": "public"}}, {"info": {"county": "Susquehanna", "url": "https://mapsengine.google.com/06136759344167181854-11153668168998282611-4/wms/?version=1.3.0", "state": "PA", "SiteID": "92689187-8064-5072-b355-e47ec74270a2", "bbox": "-75.8992294976,41.7218999955,-75.8871705024,41.7309000045", "year": 2013, "latitude": 41.7264, "options": {"layers": "06136759344167181854-14352042435009570491-4", "version": "1.3.0"}, "longitude": -75.8932, "class": "public"}}, {"info": {"county": "Susquehanna", "url": "https://mapsengine.google.com/06136759344167181854-11153668168998282611-4/wms/?version=1.3.0", "state": "PA", "SiteID": "3de59bbc-cb49-5929-b8f8-4c0df557a250", "bbox": "-75.8939437513,41.8731999955,-75.8818562487,41.8822000045", "year": 2013, "latitude": 41.8777, "options": {"layers": "06136759344167181854-14352042435009570491-4", "version": "1.3.0"}, "longitude": -75.8879, "class": "public"}}, {"info": {"county": "Susquehanna", "url": "https://mapsengine.google.com/06136759344167181854-11153668168998282611-4/wms/?version=1.3.0", "state": "PA", "SiteID": "d06884f6-7dc4-580f-9c44-1cf744ae235d", "bbox": "-75.8929281092,41.7070999955,-75.8808718908,41.7161000045", "year": 2013, "latitude": 41.7116, "options": {"layers": "06136759344167181854-14352042435009570491-4", "version": "1.3.0"}, "longitude": -75.8869, "class": "public"}}, {"info": {"county": "Susquehanna", "url": "https://mapsengine.google.com/06136759344167181854-11153668168998282611-4/wms/?version=1.3.0", "state": "PA", "SiteID": "5e7ea686-3f37-5e58-9135-559690676592", "bbox": "-75.8988268717,41.6938999955,-75.8867731283,41.7029000045", "year": 2013, "latitude": 41.6984, "options": {"layers": "06136759344167181854-14352042435009570491-4", "version": "1.3.0"}, "longitude": -75.8928, "class": "public"}}, {"info": {"county": "Susquehanna", "url": "https://mapsengine.google.com/06136759344167181854-11153668168998282611-4/wms/?version=1.3.0", "state": "PA", "SiteID": "fdb95928-2aca-542d-8631-c7d8cd433492", "bbox": "-75.8958270966,41.6962999955,-75.8837729034,41.7053000045", "year": 2013, "latitude": 41.7008, "options": {"layers": "06136759344167181854-14352042435009570491-4", "version": "1.3.0"}, "longitude": -75.8898, "class": "public"}}, {"info": {"county": "Susquehanna", "url": "https://mapsengine.google.com/06136759344167181854-11153668168998282611-4/wms/?version=1.3.0", "state": "PA", "SiteID": "13eafc23-2207-5971-b6cb-20424f733dda", "bbox": "-75.8938524817,41.9652999955,-75.8817475183,41.9743000045", "year": 2013, "latitude": 41.9698, "options": {"layers": "06136759344167181854-14352042435009570491-4", "version": "1.3.0"}, "longitude": -75.8878, "class": "public"}}, {"info": {"county": "Susquehanna", "url": "https://mapsengine.google.com/06136759344167181854-11153668168998282611-4/wms/?version=1.3.0", "state": "PA", "SiteID": "afb26e08-c3ee-5411-ba24-f8b2473b8322", "bbox": "-75.8922301452,41.7287999955,-75.8801698548,41.7378000045", "year": 2013, "latitude": 41.7333, "options": {"layers": "06136759344167181854-14352042435009570491-4", "version": "1.3.0"}, "longitude": -75.8862, "class": "public"}}, {"info": {"county": "Susquehanna", "url": "https://mapsengine.google.com/06136759344167181854-11153668168998282611-4/wms/?version=1.3.0", "state": "PA", "SiteID": "76374ea4-d046-503f-9246-5ed8b9e7c7ee", "bbox": "-75.8907283999,41.7101999955,-75.8786716001,41.7192000045", "year": 2013, "latitude": 41.7147, "options": {"layers": "06136759344167181854-14352042435009570491-4", "version": "1.3.0"}, "longitude": -75.8847, "class": "public"}}, {"info": {"county": "Susquehanna", "url": "https://mapsengine.google.com/06136759344167181854-11153668168998282611-4/wms/?version=1.3.0", "state": "PA", "SiteID": "a5c26af7-f865-51ae-9100-4962cbe18e98", "bbox": "-75.8874273778,41.6992999955,-75.8753726222,41.7083000045", "year": 2013, "latitude": 41.7038, "options": {"layers": "06136759344167181854-14352042435009570491-4", "version": "1.3.0"}, "longitude": -75.8814, "class": "public"}}, {"info": {"county": "Susquehanna", "url": "https://mapsengine.google.com/06136759344167181854-11153668168998282611-4/wms/?version=1.3.0", "state": "PA", "SiteID": "2f660ae9-3afa-5091-b634-56c6d701626b", "bbox": "-75.885631197,41.7399999955,-75.873568803,41.7490000045", "year": 2013, "latitude": 41.7445, "options": {"layers": "06136759344167181854-14352042435009570491-4", "version": "1.3.0"}, "longitude": -75.8796, "class": "public"}}, {"info": {"county": "Susquehanna", "url": "https://mapsengine.google.com/06136759344167181854-11153668168998282611-4/wms/?version=1.3.0", "state": "PA", "SiteID": "a5bb6036-bde9-5c35-9b84-a81b56fe167f", "bbox": "-75.8914306711,41.7343999955,-75.8793693289,41.7434000045", "year": 2013, "latitude": 41.7389, "options": {"layers": "06136759344167181854-14352042435009570491-4", "version": "1.3.0"}, "longitude": -75.8854, "class": "public"}}, {"info": {"county": "Susquehanna", "url": "https://mapsengine.google.com/06136759344167181854-11153668168998282611-4/wms/?version=1.3.0", "state": "PA", "SiteID": "44e68fbb-36e4-56c3-b2e7-04a82e941fa6", "bbox": "-75.8861278185,41.7039999955,-75.8740721815,41.7130000045", "year": 2013, "latitude": 41.7085, "options": {"layers": "06136759344167181854-14352042435009570491-4", "version": "1.3.0"}, "longitude": -75.8801, "class": "public"}}, {"info": {"county": "Susquehanna", "url": "https://mapsengine.google.com/06136759344167181854-11153668168998282611-4/wms/?version=1.3.0", "state": "PA", "SiteID": "3c6491e6-df7c-5d61-a353-634360dc4947", "bbox": "-75.88543429,41.7728999955,-75.87336571,41.7819000045", "year": 2013, "latitude": 41.7774, "options": {"layers": "06136759344167181854-14352042435009570491-4", "version": "1.3.0"}, "longitude": -75.8794, "class": "public"}}, {"info": {"county": "Susquehanna", "url": "https://mapsengine.google.com/06136759344167181854-11153668168998282611-4/wms/?version=1.3.0", "state": "PA", "SiteID": "e9c4e1d3-2883-58ed-bd8a-14279e5ebf53", "bbox": "-75.7900425885,41.8608999955,-75.7779574115,41.8699000045", "year": 2013, "latitude": 41.8654, "options": {"layers": "06136759344167181854-14352042435009570491-4", "version": "1.3.0"}, "longitude": -75.784, "class": "public"}}, {"info": {"county": "Susquehanna", "url": "https://mapsengine.google.com/06136759344167181854-11153668168998282611-4/wms/?version=1.3.0", "state": "PA", "SiteID": "ce4c04c3-c4f0-59ff-89dc-42e7c33e0a1b", "bbox": "-75.8839282592,41.7086999955,-75.8718717408,41.7177000045", "year": 2013, "latitude": 41.7132, "options": {"layers": "06136759344167181854-14352042435009570491-4", "version": "1.3.0"}, "longitude": -75.8779, "class": "public"}}, {"info": {"county": "Susquehanna", "url": "https://mapsengine.google.com/06136759344167181854-11153668168998282611-4/wms/?version=1.3.0", "state": "PA", "SiteID": "6d9bdfd1-d043-54e0-bdc9-39bbce3d2fdd", "bbox": "-76.1098332177,41.7614999955,-76.0977667823,41.7705000045", "year": 2013, "latitude": 41.766, "options": {"layers": "06136759344167181854-14352042435009570491-4", "version": "1.3.0"}, "longitude": -76.1038, "class": "public"}}, {"info": {"county": "Susquehanna", "url": "https://mapsengine.google.com/06136759344167181854-11153668168998282611-4/wms/?version=1.3.0", "state": "PA", "SiteID": "8cf0b6e0-7643-53e1-abae-e83129cb7d4a", "bbox": "-75.9388224724,41.6468999955,-75.9267775276,41.6559000045", "year": 2013, "latitude": 41.6514, "options": {"layers": "06136759344167181854-14352042435009570491-4", "version": "1.3.0"}, "longitude": -75.9328, "class": "public"}}, {"info": {"county": "Susquehanna", "url": "https://mapsengine.google.com/06136759344167181854-11153668168998282611-4/wms/?version=1.3.0", "state": "PA", "SiteID": "4fe0783d-0ff7-5e75-8599-135f537dc8dc", "bbox": "-75.9381509051,41.9486999955,-75.9260490949,41.9577000045", "year": 2013, "latitude": 41.9532, "options": {"layers": "06136759344167181854-14352042435009570491-4", "version": "1.3.0"}, "longitude": -75.9321, "class": "public"}}, {"info": {"county": "Susquehanna", "url": "https://mapsengine.google.com/06136759344167181854-11153668168998282611-4/wms/?version=1.3.0", "state": "PA", "SiteID": "18e98fa6-c12a-51d7-887f-c9076a0c35a4", "bbox": "-75.931526703,41.6920999955,-75.919473297,41.7011000045", "year": 2013, "latitude": 41.6966, "options": {"layers": "06136759344167181854-14352042435009570491-4", "version": "1.3.0"}, "longitude": -75.9255, "class": "public"}}, {"info": {"county": "Susquehanna", "url": "https://mapsengine.google.com/06136759344167181854-11153668168998282611-4/wms/?version=1.3.0", "state": "PA", "SiteID": "a6a57685-afe5-5f42-9d2f-527b7b88dceb", "bbox": "-75.9265451894,41.8883999955,-75.9144548106,41.8974000045", "year": 2013, "latitude": 41.8929, "options": {"layers": "06136759344167181854-14352042435009570491-4", "version": "1.3.0"}, "longitude": -75.9205, "class": "public"}}, {"info": {"county": "Susquehanna", "url": "https://mapsengine.google.com/06136759344167181854-11153668168998282611-4/wms/?version=1.3.0", "state": "PA", "SiteID": "cafa514d-8000-579a-9e17-645fb63a81f7", "bbox": "-75.9345393967,41.8270999955,-75.9224606033,41.8361000045", "year": 2013, "latitude": 41.8316, "options": {"layers": "06136759344167181854-14352042435009570491-4", "version": "1.3.0"}, "longitude": -75.9285, "class": "public"}}, {"info": {"county": "Susquehanna", "url": "https://mapsengine.google.com/06136759344167181854-11153668168998282611-4/wms/?version=1.3.0", "state": "PA", "SiteID": "a984302b-1868-51f3-aab5-2a7a1c336dd3", "bbox": "-75.9303296008,41.7229999955,-75.9182703992,41.7320000045", "year": 2013, "latitude": 41.7275, "options": {"layers": "06136759344167181854-14352042435009570491-4", "version": "1.3.0"}, "longitude": -75.9243, "class": "public"}}, {"info": {"county": "Susquehanna", "url": "https://mapsengine.google.com/06136759344167181854-11153668168998282611-4/wms/?version=1.3.0", "state": "PA", "SiteID": "0ef2afd7-d28e-55ab-a0ea-aa491e1e50ee", "bbox": "-75.9184514653,41.9545999955,-75.9063485347,41.9636000045", "year": 2013, "latitude": 41.9591, "options": {"layers": "06136759344167181854-14352042435009570491-4", "version": "1.3.0"}, "longitude": -75.9124, "class": "public"}}, {"info": {"county": "Susquehanna", "url": "https://mapsengine.google.com/06136759344167181854-11153668168998282611-4/wms/?version=1.3.0", "state": "PA", "SiteID": "2a701eda-382c-50ac-ab2e-682acbf3ab42", "bbox": "-75.9339458047,41.8948999955,-75.9218541953,41.9039000045", "year": 2013, "latitude": 41.8994, "options": {"layers": "06136759344167181854-14352042435009570491-4", "version": "1.3.0"}, "longitude": -75.9279, "class": "public"}}, {"info": {"county": "Susquehanna", "url": "https://mapsengine.google.com/06136759344167181854-11153668168998282611-4/wms/?version=1.3.0", "state": "PA", "SiteID": "5a382da9-f238-585d-a67b-c31df7134102", "bbox": "-75.9280259535,41.6840999955,-75.9159740465,41.6931000045", "year": 2013, "latitude": 41.6886, "options": {"layers": "06136759344167181854-14352042435009570491-4", "version": "1.3.0"}, "longitude": -75.922, "class": "public"}}, {"info": {"county": "Susquehanna", "url": "https://mapsengine.google.com/06136759344167181854-11153668168998282611-4/wms/?version=1.3.0", "state": "PA", "SiteID": "99bfb552-8191-5b76-9af1-7d0e643e7d5f", "bbox": "-75.8851306523,41.7341999955,-75.8730693477,41.7432000045", "year": 2013, "latitude": 41.7387, "options": {"layers": "06136759344167181854-14352042435009570491-4", "version": "1.3.0"}, "longitude": -75.8791, "class": "public"}}, {"info": {"county": "Susquehanna", "url": "https://mapsengine.google.com/06136759344167181854-11153668168998282611-4/wms/?version=1.3.0", "state": "PA", "SiteID": "fd8ff8c1-e9ea-565f-9e7b-fd9a0f1b20f9", "bbox": "-75.841524886,41.6726999955,-75.829475114,41.6817000045", "year": 2013, "latitude": 41.6772, "options": {"layers": "06136759344167181854-14352042435009570491-4", "version": "1.3.0"}, "longitude": -75.8355, "class": "public"}}, {"info": {"county": "Susquehanna", "url": "https://mapsengine.google.com/06136759344167181854-11153668168998282611-4/wms/?version=1.3.0", "state": "PA", "SiteID": "c2e4b768-5664-58eb-8d49-6e8942420bf6", "bbox": "-75.8052254103,41.6782999955,-75.7931745897,41.6873000045", "year": 2013, "latitude": 41.6828, "options": {"layers": "06136759344167181854-14352042435009570491-4", "version": "1.3.0"}, "longitude": -75.7992, "class": "public"}}, {"info": {"county": "Susquehanna", "url": "https://mapsengine.google.com/06136759344167181854-11153668168998282611-4/wms/?version=1.3.0", "state": "PA", "SiteID": "e60891f0-a059-5744-a13e-82b8ca9630b5", "bbox": "-75.695623183,41.6544999955,-75.683576817,41.6635000045", "year": 2013, "latitude": 41.659, "options": {"layers": "06136759344167181854-14352042435009570491-4", "version": "1.3.0"}, "longitude": -75.6896, "class": "public"}}, {"info": {"county": "Susquehanna", "url": "https://mapsengine.google.com/06136759344167181854-11153668168998282611-4/wms/?version=1.3.0", "state": "PA", "SiteID": "07c0c832-63de-597d-bb61-23f5d4203873", "bbox": "-75.6331437892,41.8735999955,-75.6210562108,41.8826000045", "year": 2013, "latitude": 41.8781, "options": {"layers": "06136759344167181854-14352042435009570491-4", "version": "1.3.0"}, "longitude": -75.6271, "class": "public"}}, {"info": {"county": "Susquehanna", "url": "https://mapsengine.google.com/06136759344167181854-11153668168998282611-4/wms/?version=1.3.0", "state": "PA", "SiteID": "ce54f669-2199-5559-aac8-1d3e7c89edd1", "bbox": "-75.6221439594,41.8753999955,-75.6100560406,41.8844000045", "year": 2013, "latitude": 41.8799, "options": {"layers": "06136759344167181854-14352042435009570491-4", "version": "1.3.0"}, "longitude": -75.6161, "class": "public"}}, {"info": {"county": "Susquehanna", "url": "https://mapsengine.google.com/06136759344167181854-11153668168998282611-4/wms/?version=1.3.0", "state": "PA", "SiteID": "28b3efb8-07e7-5796-aa6b-9c9ab3eea8d4", "bbox": "-75.5977438176,41.8738999955,-75.5856561824,41.8829000045", "year": 2013, "latitude": 41.8784, "options": {"layers": "06136759344167181854-14352042435009570491-4", "version": "1.3.0"}, "longitude": -75.5917, "class": "public"}}, {"info": {"county": "Susquehanna", "url": "https://mapsengine.google.com/06136759344167181854-11153668168998282611-4/wms/?version=1.3.0", "state": "PA", "SiteID": "f26986bf-cb7f-509c-9aa2-dc08e9e61c2a", "bbox": "-75.6134414547,41.8488999955,-75.6013585453,41.8579000045", "year": 2013, "latitude": 41.8534, "options": {"layers": "06136759344167181854-14352042435009570491-4", "version": "1.3.0"}, "longitude": -75.6074, "class": "public"}}, {"info": {"county": "Susquehanna", "url": "https://mapsengine.google.com/06136759344167181854-11153668168998282611-4/wms/?version=1.3.0", "state": "PA", "SiteID": "ef6d5abe-ff86-5a52-825d-2bd335d079c7", "bbox": "-75.6060350241,41.7806999955,-75.5939649759,41.7897000045", "year": 2013, "latitude": 41.7852, "options": {"layers": "06136759344167181854-14352042435009570491-4", "version": "1.3.0"}, "longitude": -75.6, "class": "public"}}, {"info": {"county": "Susquehanna", "url": "https://mapsengine.google.com/06136759344167181854-11153668168998282611-4/wms/?version=1.3.0", "state": "PA", "SiteID": "0ae59930-2cbf-5a9d-b0e4-d1a8cae064e9", "bbox": "-75.6024414925,41.8492999955,-75.5903585075,41.8583000045", "year": 2013, "latitude": 41.8538, "options": {"layers": "06136759344167181854-14352042435009570491-4", "version": "1.3.0"}, "longitude": -75.5964, "class": "public"}}, {"info": {"county": "Susquehanna", "url": "https://mapsengine.google.com/06136759344167181854-11153668168998282611-4/wms/?version=1.3.0", "state": "PA", "SiteID": "0f7ac4ab-0a94-54a1-844e-99920466fe84", "bbox": "-75.5837363141,41.7943999955,-75.5716636859,41.8034000045", "year": 2013, "latitude": 41.7989, "options": {"layers": "06136759344167181854-14352042435009570491-4", "version": "1.3.0"}, "longitude": -75.5777, "class": "public"}}, {"info": {"county": "Susquehanna", "url": "https://mapsengine.google.com/06136759344167181854-11153668168998282611-4/wms/?version=1.3.0", "state": "PA", "SiteID": "b7238378-bcd7-5cec-94d5-1f750b44d49a", "bbox": "-75.5812459562,41.8964999955,-75.5691540438,41.9055000045", "year": 2013, "latitude": 41.901, "options": {"layers": "06136759344167181854-14352042435009570491-4", "version": "1.3.0"}, "longitude": -75.5752, "class": "public"}}, {"info": {"county": "Susquehanna", "url": "https://mapsengine.google.com/06136759344167181854-11153668168998282611-4/wms/?version=1.3.0", "state": "PA", "SiteID": "75aedcdc-e660-584d-b97d-2ea98e747916", "bbox": "-75.5635439878,41.8756999955,-75.5514560122,41.8847000045", "year": 2013, "latitude": 41.8802, "options": {"layers": "06136759344167181854-14352042435009570491-4", "version": "1.3.0"}, "longitude": -75.5575, "class": "public"}}, {"info": {"county": "Susquehanna", "url": "https://mapsengine.google.com/06136759344167181854-11153668168998282611-4/wms/?version=1.3.0", "state": "PA", "SiteID": "51ae8ba8-fa8b-5ed3-8a1f-9da6a93c56e0", "bbox": "-75.5822430517,41.8657999955,-75.5701569483,41.8748000045", "year": 2013, "latitude": 41.8703, "options": {"layers": "06136759344167181854-14352042435009570491-4", "version": "1.3.0"}, "longitude": -75.5762, "class": "public"}}, {"info": {"county": "Susquehanna", "url": "https://mapsengine.google.com/06136759344167181854-11153668168998282611-4/wms/?version=1.3.0", "state": "PA", "SiteID": "ad769ef5-c571-521e-b7db-1cbc728c4d85", "bbox": "-75.6059318828,41.7472999955,-75.5938681172,41.7563000045", "year": 2013, "latitude": 41.7518, "options": {"layers": "06136759344167181854-14352042435009570491-4", "version": "1.3.0"}, "longitude": -75.5999, "class": "public"}}, {"info": {"county": "Washington", "url": "https://mapsengine.google.com/06136759344167181854-11153668168998282611-4/wms/?version=1.3.0", "state": "PA", "SiteID": "aa99637f-1aad-50b6-b4d0-d2a2fe7c78ad", "bbox": "-80.5221939268,40.2218999955,-80.5104060732,40.2309000045", "year": 2013, "latitude": 40.2264, "options": {"layers": "06136759344167181854-14060481984627017886-4", "version": "1.3.0"}, "longitude": -80.5163, "class": "public"}}, {"info": {"county": "Washington", "url": "https://mapsengine.google.com/06136759344167181854-11153668168998282611-4/wms/?version=1.3.0", "state": "PA", "SiteID": "2ae80bdc-4cf3-5bae-8f48-f3cf088f0c8b", "bbox": "-80.4371990332,40.2804999955,-80.4254009668,40.2895000045", "year": 2013, "latitude": 40.285, "options": {"layers": "06136759344167181854-14060481984627017886-4", "version": "1.3.0"}, "longitude": -80.4313, "class": "public"}}, {"info": {"county": "Washington", "url": "https://mapsengine.google.com/06136759344167181854-11153668168998282611-4/wms/?version=1.3.0", "state": "PA", "SiteID": "d175709c-259e-5d0f-b330-16368d06881a", "bbox": "-80.3971981345,40.2701999955,-80.3854018655,40.2792000045", "year": 2013, "latitude": 40.2747, "options": {"layers": "06136759344167181854-14060481984627017886-4", "version": "1.3.0"}, "longitude": -80.3913, "class": "public"}}, {"info": {"county": "Washington", "url": "https://mapsengine.google.com/06136759344167181854-11153668168998282611-4/wms/?version=1.3.0", "state": "PA", "SiteID": "ef744082-3288-5cb3-83b0-3f677763d1c9", "bbox": "-80.382409414,40.3990999955,-80.370590586,40.4081000045", "year": 2013, "latitude": 40.4036, "options": {"layers": "06136759344167181854-14060481984627017886-4", "version": "1.3.0"}, "longitude": -80.3765, "class": "public"}}, {"info": {"county": "Washington", "url": "https://mapsengine.google.com/06136759344167181854-11153668168998282611-4/wms/?version=1.3.0", "state": "PA", "SiteID": "63f4bfcf-e71b-57e4-b7cf-210083a2467b", "bbox": "-80.3475954763,40.2396999955,-80.3358045237,40.2487000045", "year": 2013, "latitude": 40.2442, "options": {"layers": "06136759344167181854-14060481984627017886-4", "version": "1.3.0"}, "longitude": -80.3417, "class": "public"}}, {"info": {"county": "Washington", "url": "https://mapsengine.google.com/06136759344167181854-11153668168998282611-4/wms/?version=1.3.0", "state": "PA", "SiteID": "55065d23-6003-5a66-af78-2da29130e181", "bbox": "-80.3438944837,40.2282999955,-80.3321055163,40.2373000045", "year": 2013, "latitude": 40.2328, "options": {"layers": "06136759344167181854-14060481984627017886-4", "version": "1.3.0"}, "longitude": -80.338, "class": "public"}}, {"info": {"county": "Washington", "url": "https://mapsengine.google.com/06136759344167181854-11153668168998282611-4/wms/?version=1.3.0", "state": "PA", "SiteID": "6bb78a4b-86b5-57cf-958b-b5d4aecc345f", "bbox": "-80.3433968616,40.2555999955,-80.3316031384,40.2646000045", "year": 2013, "latitude": 40.2601, "options": {"layers": "06136759344167181854-14060481984627017886-4", "version": "1.3.0"}, "longitude": -80.3375, "class": "public"}}, {"info": {"county": "Washington", "url": "https://mapsengine.google.com/06136759344167181854-11153668168998282611-4/wms/?version=1.3.0", "state": "PA", "SiteID": "52ac5404-8e8a-58c1-ad99-f363690c8d36", "bbox": "-80.2736841569,40.1092999955,-80.2619158431,40.1183000045", "year": 2013, "latitude": 40.1138, "options": {"layers": "06136759344167181854-14060481984627017886-4", "version": "1.3.0"}, "longitude": -80.2678, "class": "public"}}, {"info": {"county": "Washington", "url": "https://mapsengine.google.com/06136759344167181854-11153668168998282611-4/wms/?version=1.3.0", "state": "PA", "SiteID": "553c6dad-1097-51aa-91d0-857df08cd9eb", "bbox": "-80.2594981084,40.2698999955,-80.2477018916,40.2789000045", "year": 2013, "latitude": 40.2744, "options": {"layers": "06136759344167181854-14060481984627017886-4", "version": "1.3.0"}, "longitude": -80.2536, "class": "public"}}, {"info": {"county": "Washington", "url": "https://mapsengine.google.com/06136759344167181854-11153668168998282611-4/wms/?version=1.3.0", "state": "PA", "SiteID": "c34fd89b-b6e8-5e67-aa01-22f564ee0456", "bbox": "-80.2281812608,40.0757999955,-80.2164187392,40.0848000045", "year": 2013, "latitude": 40.0803, "options": {"layers": "06136759344167181854-14060481984627017886-4", "version": "1.3.0"}, "longitude": -80.2223, "class": "public"}}, {"info": {"county": "Washington", "url": "https://mapsengine.google.com/06136759344167181854-11153668168998282611-4/wms/?version=1.3.0", "state": "PA", "SiteID": "b9439747-045c-519f-bb63-5b2a24217f60", "bbox": "-80.1271780937,40.0390999955,-80.1154219063,40.0481000045", "year": 2013, "latitude": 40.0436, "options": {"layers": "06136759344167181854-14060481984627017886-4", "version": "1.3.0"}, "longitude": -80.1213, "class": "public"}}, {"info": {"county": "Washington", "url": "https://mapsengine.google.com/06136759344167181854-11153668168998282611-4/wms/?version=1.3.0", "state": "PA", "SiteID": "ad945f48-ae67-5717-9514-6d1f4cd57ef4", "bbox": "-80.193785637,40.1263999955,-80.182014363,40.1354000045", "year": 2013, "latitude": 40.1309, "options": {"layers": "06136759344167181854-14060481984627017886-4", "version": "1.3.0"}, "longitude": -80.1879, "class": "public"}}, {"info": {"county": "Washington", "url": "https://mapsengine.google.com/06136759344167181854-11153668168998282611-4/wms/?version=1.3.0", "state": "PA", "SiteID": "db9f87da-5d15-536e-9c26-3d0a916b956d", "bbox": "-80.1534822371,40.0870999955,-80.1417177629,40.0961000045", "year": 2013, "latitude": 40.0916, "options": {"layers": "06136759344167181854-14060481984627017886-4", "version": "1.3.0"}, "longitude": -80.1476, "class": "public"}}, {"info": {"county": "Washington", "url": "https://mapsengine.google.com/06136759344167181854-11153668168998282611-4/wms/?version=1.3.0", "state": "PA", "SiteID": "ae266552-315c-5397-801b-014eb8b4bdf4", "bbox": "-80.189881019,40.0729999955,-80.178118981,40.0820000045", "year": 2013, "latitude": 40.0775, "options": {"layers": "06136759344167181854-14060481984627017886-4", "version": "1.3.0"}, "longitude": -80.184, "class": "public"}}, {"info": {"county": "Washington", "url": "https://mapsengine.google.com/06136759344167181854-11153668168998282611-4/wms/?version=1.3.0", "state": "PA", "SiteID": "4f7c3e08-1968-55df-bb3c-3aa7f3372df0", "bbox": "-80.2034806045,40.0681999955,-80.1917193955,40.0772000045", "year": 2013, "latitude": 40.0727, "options": {"layers": "06136759344167181854-14060481984627017886-4", "version": "1.3.0"}, "longitude": -80.1976, "class": "public"}}, {"info": {"county": "Washington", "url": "https://mapsengine.google.com/06136759344167181854-11153668168998282611-4/wms/?version=1.3.0", "state": "PA", "SiteID": "fce80d5d-feec-5ac1-bdbf-e2fece93a8c1", "bbox": "-80.1126742613,39.9945999955,-80.1009257387,40.0036000045", "year": 2013, "latitude": 39.9991, "options": {"layers": "06136759344167181854-14060481984627017886-4", "version": "1.3.0"}, "longitude": -80.1068, "class": "public"}}, {"info": {"county": "Washington", "url": "https://mapsengine.google.com/06136759344167181854-11153668168998282611-4/wms/?version=1.3.0", "state": "PA", "SiteID": "985a7172-527f-5bb5-9403-00732c44771a", "bbox": "-80.14037912,40.0509999955,-80.12862088,40.0600000045", "year": 2013, "latitude": 40.0555, "options": {"layers": "06136759344167181854-14060481984627017886-4", "version": "1.3.0"}, "longitude": -80.1345, "class": "public"}}, {"info": {"county": "Washington", "url": "https://mapsengine.google.com/06136759344167181854-11153668168998282611-4/wms/?version=1.3.0", "state": "PA", "SiteID": "6dd14b62-c6f6-50b8-918d-a9958e6eefff", "bbox": "-80.1048787059,40.0461999955,-80.0931212941,40.0552000045", "year": 2013, "latitude": 40.0507, "options": {"layers": "06136759344167181854-14060481984627017886-4", "version": "1.3.0"}, "longitude": -80.099, "class": "public"}}, {"info": {"county": "Washington", "url": "https://mapsengine.google.com/06136759344167181854-11153668168998282611-4/wms/?version=1.3.0", "state": "PA", "SiteID": "a0e42ec7-ad8b-5459-8643-9d6dd10190f7", "bbox": "-80.1064840184,40.1076999955,-80.0947159816,40.1167000045", "year": 2013, "latitude": 40.1122, "options": {"layers": "06136759344167181854-14060481984627017886-4", "version": "1.3.0"}, "longitude": -80.1006, "class": "public"}}, {"info": {"county": "Washington", "url": "https://mapsengine.google.com/06136759344167181854-11153668168998282611-4/wms/?version=1.3.0", "state": "PA", "SiteID": "5d7b415d-90b9-5c31-9020-1bbbebde8183", "bbox": "-80.0792757243,40.0115999955,-80.0675242757,40.0206000045", "year": 2013, "latitude": 40.0161, "options": {"layers": "06136759344167181854-14060481984627017886-4", "version": "1.3.0"}, "longitude": -80.0734, "class": "public"}}, {"info": {"county": "Washington", "url": "https://mapsengine.google.com/06136759344167181854-11153668168998282611-4/wms/?version=1.3.0", "state": "PA", "SiteID": "d928fe8d-f12b-59fd-a932-7228407230f6", "bbox": "-80.1067783437,40.0419999955,-80.0950216563,40.0510000045", "year": 2013, "latitude": 40.0465, "options": {"layers": "06136759344167181854-14060481984627017886-4", "version": "1.3.0"}, "longitude": -80.1009, "class": "public"}}, {"info": {"county": "Washington", "url": "https://mapsengine.google.com/06136759344167181854-11153668168998282611-4/wms/?version=1.3.0", "state": "PA", "SiteID": "68318158-095f-595d-bc1a-6299a1789bd6", "bbox": "-80.0568776195,40.0335999955,-80.0451223805,40.0426000045", "year": 2013, "latitude": 40.0381, "options": {"layers": "06136759344167181854-14060481984627017886-4", "version": "1.3.0"}, "longitude": -80.051, "class": "public"}}, {"info": {"county": "Washington", "url": "https://mapsengine.google.com/06136759344167181854-11153668168998282611-4/wms/?version=1.3.0", "state": "PA", "SiteID": "7ff3bc49-36df-5c1e-a654-697d6259ebed", "bbox": "-80.0588892779,40.1683999955,-80.0471107221,40.1774000045", "year": 2013, "latitude": 40.1729, "options": {"layers": "06136759344167181854-14060481984627017886-4", "version": "1.3.0"}, "longitude": -80.053, "class": "public"}}, {"info": {"county": "Lycoming", "url": "https://mapsengine.google.com/06136759344167181854-11153668168998282611-4/wms/?version=1.3.0", "state": "PA", "SiteID": "4ab14c8a-e75a-5a29-856d-2832cd9324b6", "bbox": "-77.4966978718,41.3819999955,-77.4847021282,41.3910000045", "year": 2013, "latitude": 41.3865, "options": {"layers": "06136759344167181854-13835316165504888097-4", "version": "1.3.0"}, "longitude": -77.4907, "class": "public"}}, {"info": {"county": "Lycoming", "url": "https://mapsengine.google.com/06136759344167181854-11153668168998282611-4/wms/?version=1.3.0", "state": "PA", "SiteID": "5de6d09a-6865-5b69-b24c-3585ad609cd8", "bbox": "-77.5279973461,41.3762999955,-77.5160026539,41.3853000045", "year": 2013, "latitude": 41.3808, "options": {"layers": "06136759344167181854-13835316165504888097-4", "version": "1.3.0"}, "longitude": -77.522, "class": "public"}}, {"info": {"county": "Lycoming", "url": "https://mapsengine.google.com/06136759344167181854-11153668168998282611-4/wms/?version=1.3.0", "state": "PA", "SiteID": "e03e6231-2c1d-5728-83e7-a723825bb9ff", "bbox": "-77.3889984808,41.3885999955,-77.3770015192,41.3976000045", "year": 2013, "latitude": 41.3931, "options": {"layers": "06136759344167181854-13835316165504888097-4", "version": "1.3.0"}, "longitude": -77.383, "class": "public"}}, {"info": {"county": "Lycoming", "url": "https://mapsengine.google.com/06136759344167181854-11153668168998282611-4/wms/?version=1.3.0", "state": "PA", "SiteID": "6332abdf-cd13-56f8-a397-511ae0e25504", "bbox": "-76.982598001,41.3833999955,-76.970601999,41.3924000045", "year": 2013, "latitude": 41.3879, "options": {"layers": "06136759344167181854-13835316165504888097-4", "version": "1.3.0"}, "longitude": -76.9766, "class": "public"}}, {"info": {"county": "Lycoming", "url": "https://mapsengine.google.com/06136759344167181854-11153668168998282611-4/wms/?version=1.3.0", "state": "PA", "SiteID": "034c834c-90d2-532e-a6c4-1c9123dbc368", "bbox": "-77.3939952171,41.3531999955,-77.3820047829,41.3622000045", "year": 2013, "latitude": 41.3577, "options": {"layers": "06136759344167181854-13835316165504888097-4", "version": "1.3.0"}, "longitude": -77.388, "class": "public"}}, {"info": {"county": "Lycoming", "url": "https://mapsengine.google.com/06136759344167181854-11153668168998282611-4/wms/?version=1.3.0", "state": "PA", "SiteID": "778436d2-d68d-53de-8902-298aa5eee7c8", "bbox": "-77.3014903784,41.3005999955,-77.2895096216,41.3096000045", "year": 2013, "latitude": 41.3051, "options": {"layers": "06136759344167181854-13835316165504888097-4", "version": "1.3.0"}, "longitude": -77.2955, "class": "public"}}, {"info": {"county": "Lycoming", "url": "https://mapsengine.google.com/06136759344167181854-11153668168998282611-4/wms/?version=1.3.0", "state": "PA", "SiteID": "e21d0196-dfaa-5f62-a567-67a8050fe2bc", "bbox": "-77.1640933481,41.3328999955,-77.1521066519,41.3419000045", "year": 2013, "latitude": 41.3374, "options": {"layers": "06136759344167181854-13835316165504888097-4", "version": "1.3.0"}, "longitude": -77.1581, "class": "public"}}, {"info": {"county": "Lycoming", "url": "https://mapsengine.google.com/06136759344167181854-11153668168998282611-4/wms/?version=1.3.0", "state": "PA", "SiteID": "81dca06b-33a0-5cef-904a-704b808bea57", "bbox": "-77.1196006044,41.4115999955,-77.1075993956,41.4206000045", "year": 2013, "latitude": 41.4161, "options": {"layers": "06136759344167181854-13835316165504888097-4", "version": "1.3.0"}, "longitude": -77.1136, "class": "public"}}, {"info": {"county": "Lycoming", "url": "https://mapsengine.google.com/06136759344167181854-11153668168998282611-4/wms/?version=1.3.0", "state": "PA", "SiteID": "23014c40-a985-5814-a7ae-9da40199c19a", "bbox": "-76.9174152503,41.5694999955,-76.9053847497,41.5785000045", "year": 2013, "latitude": 41.574, "options": {"layers": "06136759344167181854-13835316165504888097-4", "version": "1.3.0"}, "longitude": -76.9114, "class": "public"}}, {"info": {"county": "Lycoming", "url": "https://mapsengine.google.com/06136759344167181854-11153668168998282611-4/wms/?version=1.3.0", "state": "PA", "SiteID": "7d95c4a7-c25d-5acf-b241-a8a025ea4235", "bbox": "-76.6380807213,41.1951999955,-76.6261192787,41.2042000045", "year": 2013, "latitude": 41.1997, "options": {"layers": "06136759344167181854-13835316165504888097-4", "version": "1.3.0"}, "longitude": -76.6321, "class": "public"}}, {"info": {"county": "Lycoming", "url": "https://mapsengine.google.com/06136759344167181854-11153668168998282611-4/wms/?version=1.3.0", "state": "PA", "SiteID": "0cdc3925-4712-5651-9524-d392f836e88e", "bbox": "-76.6334866616,41.2600999955,-76.6215133384,41.2691000045", "year": 2013, "latitude": 41.2646, "options": {"layers": "06136759344167181854-13835316165504888097-4", "version": "1.3.0"}, "longitude": -76.6275, "class": "public"}}, {"info": {"county": "Lycoming", "url": "https://mapsengine.google.com/06136759344167181854-11153668168998282611-4/wms/?version=1.3.0", "state": "PA", "SiteID": "3ea63c7f-1e64-5fee-9dbe-7cba24524817", "bbox": "-76.6370881841,41.2766999955,-76.6251118159,41.2857000045", "year": 2013, "latitude": 41.2812, "options": {"layers": "06136759344167181854-13835316165504888097-4", "version": "1.3.0"}, "longitude": -76.6311, "class": "public"}}, {"info": {"county": "Lycoming", "url": "https://mapsengine.google.com/06136759344167181854-11153668168998282611-4/wms/?version=1.3.0", "state": "PA", "SiteID": "c71f75a0-22af-5e5e-b4bf-a37e1837eae9", "bbox": "-76.6315892855,41.2886999955,-76.6196107145,41.2977000045", "year": 2013, "latitude": 41.2932, "options": {"layers": "06136759344167181854-13835316165504888097-4", "version": "1.3.0"}, "longitude": -76.6256, "class": "public"}}, {"info": {"county": "Lycoming", "url": "https://mapsengine.google.com/06136759344167181854-11153668168998282611-4/wms/?version=1.3.0", "state": "PA", "SiteID": "cee5b7f0-8d65-52c9-8858-038e78881f42", "bbox": "-76.6396838492,41.2293999955,-76.6277161508,41.2384000045", "year": 2013, "latitude": 41.2339, "options": {"layers": "06136759344167181854-13835316165504888097-4", "version": "1.3.0"}, "longitude": -76.6337, "class": "public"}}, {"info": {"county": "Lycoming", "url": "https://mapsengine.google.com/06136759344167181854-11153668168998282611-4/wms/?version=1.3.0", "state": "PA", "SiteID": "31e0f804-2cec-525b-887c-01f492a2f076", "bbox": "-76.6265841696,41.2328999955,-76.6146158304,41.2419000045", "year": 2013, "latitude": 41.2374, "options": {"layers": "06136759344167181854-13835316165504888097-4", "version": "1.3.0"}, "longitude": -76.6206, "class": "public"}}, {"info": {"county": "Lycoming", "url": "https://mapsengine.google.com/06136759344167181854-11153668168998282611-4/wms/?version=1.3.0", "state": "PA", "SiteID": "f78bcaed-6365-5e07-98d7-fcb4a9bc3000", "bbox": "-76.5475827602,41.2174999955,-76.5356172398,41.2265000045", "year": 2013, "latitude": 41.222, "options": {"layers": "06136759344167181854-13835316165504888097-4", "version": "1.3.0"}, "longitude": -76.5416, "class": "public"}}, {"info": {"county": "Bradford", "url": "https://mapsengine.google.com/06136759344167181854-11153668168998282611-4/wms/?version=1.3.0", "state": "PA", "SiteID": "45f151a3-b166-5f23-bc7a-d4d0fa828318", "bbox": "-76.8881423617,41.8584999955,-76.8760576383,41.8675000045", "year": 2013, "latitude": 41.863, "options": {"layers": "06136759344167181854-11619381169245561436-4", "version": "1.3.0"}, "longitude": -76.8821, "class": "public"}}, {"info": {"county": "Bradford", "url": "https://mapsengine.google.com/06136759344167181854-11153668168998282611-4/wms/?version=1.3.0", "state": "PA", "SiteID": "1894bf1f-b701-5834-9cb6-2741bbf42933", "bbox": "-76.8522400667,41.8341999955,-76.8401599333,41.8432000045", "year": 2013, "latitude": 41.8387, "options": {"layers": "06136759344167181854-11619381169245561436-4", "version": "1.3.0"}, "longitude": -76.8462, "class": "public"}}, {"info": {"county": "Bradford", "url": "https://mapsengine.google.com/06136759344167181854-11153668168998282611-4/wms/?version=1.3.0", "state": "PA", "SiteID": "bc9f9ccd-dbfc-5dfb-bb91-4bc85a4d57d5", "bbox": "-76.8240297228,41.7242999955,-76.8119702772,41.7333000045", "year": 2013, "latitude": 41.7288, "options": {"layers": "06136759344167181854-11619381169245561436-4", "version": "1.3.0"}, "longitude": -76.818, "class": "public"}}, {"info": {"county": "Bradford", "url": "https://mapsengine.google.com/06136759344167181854-11153668168998282611-4/wms/?version=1.3.0", "state": "PA", "SiteID": "512aae39-3e96-5739-b39e-8a223af856a0", "bbox": "-76.8371378689,41.8108999955,-76.8250621311,41.8199000045", "year": 2013, "latitude": 41.8154, "options": {"layers": "06136759344167181854-11619381169245561436-4", "version": "1.3.0"}, "longitude": -76.8311, "class": "public"}}, {"info": {"county": "Bradford", "url": "https://mapsengine.google.com/06136759344167181854-11153668168998282611-4/wms/?version=1.3.0", "state": "PA", "SiteID": "2665316f-36da-5580-9aa1-81c8cb960123", "bbox": "-76.8175293005,41.7197999955,-76.8054706995,41.7288000045", "year": 2013, "latitude": 41.7243, "options": {"layers": "06136759344167181854-11619381169245561436-4", "version": "1.3.0"}, "longitude": -76.8115, "class": "public"}}, {"info": {"county": "Bradford", "url": "https://mapsengine.google.com/06136759344167181854-11153668168998282611-4/wms/?version=1.3.0", "state": "PA", "SiteID": "1b8231d5-791f-5040-8d16-01a09db60511", "bbox": "-76.7927313379,41.7414999955,-76.7806686621,41.7505000045", "year": 2013, "latitude": 41.746, "options": {"layers": "06136759344167181854-11619381169245561436-4", "version": "1.3.0"}, "longitude": -76.7867, "class": "public"}}, {"info": {"county": "Bradford", "url": "https://mapsengine.google.com/06136759344167181854-11153668168998282611-4/wms/?version=1.3.0", "state": "PA", "SiteID": "12dc8636-2a3b-59c0-9772-8396f70ab895", "bbox": "-76.7171332835,41.7621999955,-76.7050667165,41.7712000045", "year": 2013, "latitude": 41.7667, "options": {"layers": "06136759344167181854-11619381169245561436-4", "version": "1.3.0"}, "longitude": -76.7111, "class": "public"}}, {"info": {"county": "Bradford", "url": "https://mapsengine.google.com/06136759344167181854-11153668168998282611-4/wms/?version=1.3.0", "state": "PA", "SiteID": "2e651dec-48a0-57a6-8632-5efaf5044f1f", "bbox": "-76.7281273966,41.6994999955,-76.7160726034,41.7085000045", "year": 2013, "latitude": 41.704, "options": {"layers": "06136759344167181854-11619381169245561436-4", "version": "1.3.0"}, "longitude": -76.7221, "class": "public"}}, {"info": {"county": "Bradford", "url": "https://mapsengine.google.com/06136759344167181854-11153668168998282611-4/wms/?version=1.3.0", "state": "PA", "SiteID": "ce3ed3a0-dcd0-5f60-8e24-9c570d57bfec", "bbox": "-76.6613413886,41.8481999955,-76.6492586114,41.8572000045", "year": 2013, "latitude": 41.8527, "options": {"layers": "06136759344167181854-11619381169245561436-4", "version": "1.3.0"}, "longitude": -76.6553, "class": "public"}}, {"info": {"county": "Bradford", "url": "https://mapsengine.google.com/06136759344167181854-11153668168998282611-4/wms/?version=1.3.0", "state": "PA", "SiteID": "09368ae3-ec81-5c1b-ad79-a40f910cb778", "bbox": "-76.6564344406,41.7744999955,-76.6443655594,41.7835000045", "year": 2013, "latitude": 41.779, "options": {"layers": "06136759344167181854-11619381169245561436-4", "version": "1.3.0"}, "longitude": -76.6504, "class": "public"}}, {"info": {"county": "Bradford", "url": "https://mapsengine.google.com/06136759344167181854-11153668168998282611-4/wms/?version=1.3.0", "state": "PA", "SiteID": "02a70797-18a2-537f-a790-9bacaf875f4f", "bbox": "-76.6125491023,41.9296999955,-76.6004508977,41.9387000045", "year": 2013, "latitude": 41.9342, "options": {"layers": "06136759344167181854-11619381169245561436-4", "version": "1.3.0"}, "longitude": -76.6065, "class": "public"}}, {"info": {"county": "Lawrence", "url": "https://mapsengine.google.com/06136759344167181854-11153668168998282611-4/wms/?version=1.3.0", "state": "PA", "SiteID": "47e43e4a-52ca-5ba4-afef-c8ac03f8c984", "bbox": "-80.453001233,41.0249769955,-80.441070767,41.0339770045", "year": 2013, "latitude": 41.029477, "options": {"layers": "06136759344167181854-17465323330420787243-4", "version": "1.3.0"}, "longitude": -80.447036, "class": "public"}}, {"info": {"county": "Allegheny", "url": "https://mapsengine.google.com/06136759344167181854-11153668168998282611-4/wms/?version=1.3.0", "state": "PA", "SiteID": "b9ee1586-2c59-56ac-9c5a-2d6473b22f2f", "bbox": "-79.7924281691,40.6115999955,-79.7805718309,40.6206000045", "year": 2013, "latitude": 40.6161, "options": {"layers": "06136759344167181854-17097547970711210810-4", "version": "1.3.0"}, "longitude": -79.7865, "class": "public"}}, {"info": {"county": "Tioga", "url": "https://mapsengine.google.com/06136759344167181854-11153668168998282611-4/wms/?version=1.3.0", "state": "PA", "SiteID": "a898d857-4ac6-5f39-8b9e-abef36abaaae", "bbox": "-77.2667868678,41.7151879955,-77.2547291322,41.7241880045", "year": 2013, "latitude": 41.719688, "options": {"layers": "06136759344167181854-14517973204373249050-4", "version": "1.3.0"}, "longitude": -77.260758, "class": "public"}}, {"info": {"county": "Susquehanna", "url": "https://mapsengine.google.com/06136759344167181854-11153668168998282611-4/wms/?version=1.3.0", "state": "PA", "SiteID": "c8a521df-099d-5b79-8cb0-560ebb36c9d7", "bbox": "-76.0810332177,41.7614999955,-76.0689667823,41.7705000045", "year": 2013, "latitude": 41.766, "options": {"layers": "06136759344167181854-14352042435009570491-4", "version": "1.3.0"}, "longitude": -76.075, "class": "public"}}, {"info": {"county": "Tioga", "url": "https://mapsengine.google.com/06136759344167181854-11153668168998282611-4/wms/?version=1.3.0", "state": "PA", "SiteID": "811a6dfb-3320-5b35-82b0-40de18c6cc20", "bbox": "-77.1507067329,41.6817439955,-77.1386552671,41.6907440045", "year": 2013, "latitude": 41.686244, "options": {"layers": "06136759344167181854-14517973204373249050-4", "version": "1.3.0"}, "longitude": -77.144681, "class": "public"}}, {"info": {"county": "Susquehanna", "url": "https://mapsengine.google.com/06136759344167181854-11153668168998282611-4/wms/?version=1.3.0", "state": "PA", "SiteID": "e1020340-e5d6-5019-af69-95ac1547b6e0", "bbox": "-75.7860531469,41.9722999955,-75.7739468531,41.9813000045", "year": 2013, "latitude": 41.9768, "options": {"layers": "06136759344167181854-14352042435009570491-4", "version": "1.3.0"}, "longitude": -75.78, "class": "public"}}, {"info": {"county": "Susquehanna", "url": "https://mapsengine.google.com/06136759344167181854-11153668168998282611-4/wms/?version=1.3.0", "state": "PA", "SiteID": "dcbc9c0e-0e0b-56e7-b5a0-871ac7bd4427", "bbox": "-75.8601491592,41.9302999955,-75.8480508408,41.9393000045", "year": 2013, "latitude": 41.9348, "options": {"layers": "06136759344167181854-14352042435009570491-4", "version": "1.3.0"}, "longitude": -75.8541, "class": "public"}}, {"info": {"county": "Susquehanna", "url": "https://mapsengine.google.com/06136759344167181854-11153668168998282611-4/wms/?version=1.3.0", "state": "PA", "SiteID": "c6c37a00-e935-5fae-8516-04e75c574eed", "bbox": "-75.569837539,41.8073999955,-75.557762461,41.8164000045", "year": 2013, "latitude": 41.8119, "options": {"layers": "06136759344167181854-14352042435009570491-4", "version": "1.3.0"}, "longitude": -75.5638, "class": "public"}}, {"info": {"county": "Susquehanna", "url": "https://mapsengine.google.com/06136759344167181854-11153668168998282611-4/wms/?version=1.3.0", "state": "PA", "SiteID": "d51a7510-83b0-504d-8e9e-937ce548a094", "bbox": "-75.6607453976,41.8905999955,-75.6486546024,41.8996000045", "year": 2013, "latitude": 41.8951, "options": {"layers": "06136759344167181854-14352042435009570491-4", "version": "1.3.0"}, "longitude": -75.6547, "class": "public"}}, {"info": {"county": "Susquehanna", "url": "https://mapsengine.google.com/06136759344167181854-11153668168998282611-4/wms/?version=1.3.0", "state": "PA", "SiteID": "519764b6-010a-547c-bae6-9529a9ff1af8", "bbox": "-76.1033287001,41.7133999955,-76.0912712999,41.7224000045", "year": 2013, "latitude": 41.7179, "options": {"layers": "06136759344167181854-14352042435009570491-4", "version": "1.3.0"}, "longitude": -76.0973, "class": "public"}}, {"info": {"county": "Susquehanna", "url": "https://mapsengine.google.com/06136759344167181854-11153668168998282611-4/wms/?version=1.3.0", "state": "PA", "SiteID": "2446fdc1-9d55-53bd-b952-87c35a69ddb5", "bbox": "-76.1164241279,41.6645999955,-76.1043758721,41.6736000045", "year": 2013, "latitude": 41.6691, "options": {"layers": "06136759344167181854-14352042435009570491-4", "version": "1.3.0"}, "longitude": -76.1104, "class": "public"}}, {"info": {"county": "Susquehanna", "url": "https://mapsengine.google.com/06136759344167181854-11153668168998282611-4/wms/?version=1.3.0", "state": "PA", "SiteID": "518dfa85-7c7c-58e8-85f6-0736369126d3", "bbox": "-76.1008239127,41.6622999955,-76.0887760873,41.6713000045", "year": 2013, "latitude": 41.6668, "options": {"layers": "06136759344167181854-14352042435009570491-4", "version": "1.3.0"}, "longitude": -76.0948, "class": "public"}}, {"info": {"county": "Susquehanna", "url": "https://mapsengine.google.com/06136759344167181854-11153668168998282611-4/wms/?version=1.3.0", "state": "PA", "SiteID": "72d08b26-2a82-5e4a-9701-6d0ae394def6", "bbox": "-76.0646427208,41.8622999955,-76.0525572792,41.8713000045", "year": 2013, "latitude": 41.8668, "options": {"layers": "06136759344167181854-14352042435009570491-4", "version": "1.3.0"}, "longitude": -76.0586, "class": "public"}}, {"info": {"county": "Susquehanna", "url": "https://mapsengine.google.com/06136759344167181854-11153668168998282611-4/wms/?version=1.3.0", "state": "PA", "SiteID": "d8b18429-2817-5fd4-8de3-55cdd7c222e6", "bbox": "-76.0471335656,41.7651999955,-76.0350664344,41.7742000045", "year": 2013, "latitude": 41.7697, "options": {"layers": "06136759344167181854-14352042435009570491-4", "version": "1.3.0"}, "longitude": -76.0411, "class": "public"}}, {"info": {"county": "Susquehanna", "url": "https://mapsengine.google.com/06136759344167181854-11153668168998282611-4/wms/?version=1.3.0", "state": "PA", "SiteID": "4704e898-e2f2-54f3-b894-8b73473fb0be", "bbox": "-75.9441449149,41.8854999955,-75.9320550851,41.8945000045", "year": 2013, "latitude": 41.89, "options": {"layers": "06136759344167181854-14352042435009570491-4", "version": "1.3.0"}, "longitude": -75.9381, "class": "public"}}, {"info": {"county": "Susquehanna", "url": "https://mapsengine.google.com/06136759344167181854-11153668168998282611-4/wms/?version=1.3.0", "state": "PA", "SiteID": "95711df0-ebb7-5f15-81b7-e0b0f30520bf", "bbox": "-76.0867254291,41.6784999955,-76.0746745709,41.6875000045", "year": 2013, "latitude": 41.683, "options": {"layers": "06136759344167181854-14352042435009570491-4", "version": "1.3.0"}, "longitude": -76.0807, "class": "public"}}, {"info": {"county": "Susquehanna", "url": "https://mapsengine.google.com/06136759344167181854-11153668168998282611-4/wms/?version=1.3.0", "state": "PA", "SiteID": "d8020035-bfe0-5c90-8ab2-46807f3fbc1d", "bbox": "-76.0596306898,41.7345999955,-76.0475693102,41.7436000045", "year": 2013, "latitude": 41.7391, "options": {"layers": "06136759344167181854-14352042435009570491-4", "version": "1.3.0"}, "longitude": -76.0536, "class": "public"}}, {"info": {"county": "Susquehanna", "url": "https://mapsengine.google.com/06136759344167181854-11153668168998282611-4/wms/?version=1.3.0", "state": "PA", "SiteID": "00fcdc29-793f-562b-bda2-a62fa9487853", "bbox": "-76.0354359279,41.7902999955,-76.0233640721,41.7993000045", "year": 2013, "latitude": 41.7948, "options": {"layers": "06136759344167181854-14352042435009570491-4", "version": "1.3.0"}, "longitude": -76.0294, "class": "public"}}, {"info": {"county": "Susquehanna", "url": "https://mapsengine.google.com/06136759344167181854-11153668168998282611-4/wms/?version=1.3.0", "state": "PA", "SiteID": "8326e095-cde0-5eb3-9d2c-fc08e52a01ee", "bbox": "-76.0108450853,41.8872999955,-75.9987549147,41.8963000045", "year": 2013, "latitude": 41.8918, "options": {"layers": "06136759344167181854-14352042435009570491-4", "version": "1.3.0"}, "longitude": -76.0048, "class": "public"}}, {"info": {"county": "Susquehanna", "url": "https://mapsengine.google.com/06136759344167181854-11153668168998282611-4/wms/?version=1.3.0", "state": "PA", "SiteID": "a890e424-554c-5871-b38c-e1344f8079be", "bbox": "-75.9654461171,41.8981999955,-75.9533538829,41.9072000045", "year": 2013, "latitude": 41.9027, "options": {"layers": "06136759344167181854-14352042435009570491-4", "version": "1.3.0"}, "longitude": -75.9594, "class": "public"}}, {"info": {"county": "Susquehanna", "url": "https://mapsengine.google.com/06136759344167181854-11153668168998282611-4/wms/?version=1.3.0", "state": "PA", "SiteID": "53fe91f8-f98a-5640-8606-b8d53210c53c", "bbox": "-75.9612272466,41.6978999955,-75.9491727534,41.7069000045", "year": 2013, "latitude": 41.7024, "options": {"layers": "06136759344167181854-14352042435009570491-4", "version": "1.3.0"}, "longitude": -75.9552, "class": "public"}}, {"info": {"county": "Susquehanna", "url": "https://mapsengine.google.com/06136759344167181854-11153668168998282611-4/wms/?version=1.3.0", "state": "PA", "SiteID": "b81789a9-ba1a-56be-a079-898ce7938e43", "bbox": "-75.9390337255,41.7668999955,-75.9269662745,41.7759000045", "year": 2013, "latitude": 41.7714, "options": {"layers": "06136759344167181854-14352042435009570491-4", "version": "1.3.0"}, "longitude": -75.933, "class": "public"}}, {"info": {"county": "Susquehanna", "url": "https://mapsengine.google.com/06136759344167181854-11153668168998282611-4/wms/?version=1.3.0", "state": "PA", "SiteID": "d26396b6-cdb4-53c9-9645-067b2acf33bf", "bbox": "-76.0345377841,41.8099999955,-76.0224622159,41.8190000045", "year": 2013, "latitude": 41.8145, "options": {"layers": "06136759344167181854-14352042435009570491-4", "version": "1.3.0"}, "longitude": -76.0285, "class": "public"}}, {"info": {"county": "Susquehanna", "url": "https://mapsengine.google.com/06136759344167181854-11153668168998282611-4/wms/?version=1.3.0", "state": "PA", "SiteID": "990e05e7-c6fc-5e6c-959b-c2ab4e0be52e", "bbox": "-75.9896336033,41.7655999955,-75.9775663967,41.7746000045", "year": 2013, "latitude": 41.7701, "options": {"layers": "06136759344167181854-14352042435009570491-4", "version": "1.3.0"}, "longitude": -75.9836, "class": "public"}}, {"info": {"county": "Susquehanna", "url": "https://mapsengine.google.com/06136759344167181854-11153668168998282611-4/wms/?version=1.3.0", "state": "PA", "SiteID": "f64a6af3-dc5f-5ec4-86bc-ad2bebafce03", "bbox": "-75.9817272185,41.6975999955,-75.9696727815,41.7066000045", "year": 2013, "latitude": 41.7021, "options": {"layers": "06136759344167181854-14352042435009570491-4", "version": "1.3.0"}, "longitude": -75.9757, "class": "public"}}, {"info": {"county": "Susquehanna", "url": "https://mapsengine.google.com/06136759344167181854-11153668168998282611-4/wms/?version=1.3.0", "state": "PA", "SiteID": "2eaa8e84-6195-5382-b48c-5283ab9ef6dc", "bbox": "-75.9571339701,41.7694999955,-75.9450660299,41.7785000045", "year": 2013, "latitude": 41.774, "options": {"layers": "06136759344167181854-14352042435009570491-4", "version": "1.3.0"}, "longitude": -75.9511, "class": "public"}}, {"info": {"county": "Susquehanna", "url": "https://mapsengine.google.com/06136759344167181854-11153668168998282611-4/wms/?version=1.3.0", "state": "PA", "SiteID": "6c26017d-c3b3-54ba-aa73-78f1fd5cd964", "bbox": "-75.9525341395,41.7712999955,-75.9404658605,41.7803000045", "year": 2013, "latitude": 41.7758, "options": {"layers": "06136759344167181854-14352042435009570491-4", "version": "1.3.0"}, "longitude": -75.9465, "class": "public"}}, {"info": {"county": "Susquehanna", "url": "https://mapsengine.google.com/06136759344167181854-11153668168998282611-4/wms/?version=1.3.0", "state": "PA", "SiteID": "909e7581-2cc2-53b8-8faf-2840f1bae8c9", "bbox": "-75.9941260378,41.6849999955,-75.9820739622,41.6940000045", "year": 2013, "latitude": 41.6895, "options": {"layers": "06136759344167181854-14352042435009570491-4", "version": "1.3.0"}, "longitude": -75.9881, "class": "public"}}, {"info": {"county": "Susquehanna", "url": "https://mapsengine.google.com/06136759344167181854-11153668168998282611-4/wms/?version=1.3.0", "state": "PA", "SiteID": "9df57c75-9656-5f28-ba86-64bafdce60aa", "bbox": "-75.9526282217,41.7082999955,-75.9405717783,41.7173000045", "year": 2013, "latitude": 41.7128, "options": {"layers": "06136759344167181854-14352042435009570491-4", "version": "1.3.0"}, "longitude": -75.9466, "class": "public"}}, {"info": {"county": "Susquehanna", "url": "https://mapsengine.google.com/06136759344167181854-11153668168998282611-4/wms/?version=1.3.0", "state": "PA", "SiteID": "29360695-759d-517c-ae5a-27ed65fcf075", "bbox": "-75.9701325501,41.7543999955,-75.9580674499,41.7634000045", "year": 2013, "latitude": 41.7589, "options": {"layers": "06136759344167181854-14352042435009570491-4", "version": "1.3.0"}, "longitude": -75.9641, "class": "public"}}, {"info": {"county": "Susquehanna", "url": "https://mapsengine.google.com/06136759344167181854-11153668168998282611-4/wms/?version=1.3.0", "state": "PA", "SiteID": "492e5551-cf45-53b2-b12f-2e3061e3bfe9", "bbox": "-75.9735455301,41.8919999955,-75.9614544699,41.9010000045", "year": 2013, "latitude": 41.8965, "options": {"layers": "06136759344167181854-14352042435009570491-4", "version": "1.3.0"}, "longitude": -75.9675, "class": "public"}}, {"info": {"county": "Susquehanna", "url": "https://mapsengine.google.com/06136759344167181854-11153668168998282611-4/wms/?version=1.3.0", "state": "PA", "SiteID": "79c4ec9f-4595-59ba-a592-5b3a193acc0e", "bbox": "-75.9433540311,41.9815999955,-75.9312459689,41.9906000045", "year": 2013, "latitude": 41.9861, "options": {"layers": "06136759344167181854-14352042435009570491-4", "version": "1.3.0"}, "longitude": -75.9373, "class": "public"}}, {"info": {"county": "Susquehanna", "url": "https://mapsengine.google.com/06136759344167181854-11153668168998282611-4/wms/?version=1.3.0", "state": "PA", "SiteID": "db13546c-2590-574c-9425-f05a0c0443e0", "bbox": "-75.9613376804,41.8088999955,-75.9492623196,41.8179000045", "year": 2013, "latitude": 41.8134, "options": {"layers": "06136759344167181854-14352042435009570491-4", "version": "1.3.0"}, "longitude": -75.9553, "class": "public"}}, {"info": {"county": "Susquehanna", "url": "https://mapsengine.google.com/06136759344167181854-11153668168998282611-4/wms/?version=1.3.0", "state": "PA", "SiteID": "6dcf81ad-fe52-50ca-8ce0-7908493fed0c", "bbox": "-75.9414381046,41.8133999955,-75.9293618954,41.8224000045", "year": 2013, "latitude": 41.8179, "options": {"layers": "06136759344167181854-14352042435009570491-4", "version": "1.3.0"}, "longitude": -75.9354, "class": "public"}},